SN_CODE,SN_CITY,SN_PROV,SN_LEVEL,SN_LNG,SN_NAME,SN_LAT,ST_PRICEURL,SN_THEME
1000000,呼和浩特,内蒙古,非A级,111.24024275,黄河麦田游乐园,40.22115228,70,
1000001,包头,内蒙古,非A级,109.8387481,九里温泉度假村,40.55959218,64,
1000002,赤峰,内蒙古,非A级,117.36552827,蛤蟆坝景区,42.67687016,27,
1000003,乌兰察布市,内蒙古,4A,112.54741449,黄花沟草原旅游区 景区,41.13187319,225,公园
1000004,呼伦贝尔,内蒙古,3A,121.48184122,敖鲁古雅使鹿部落旅游景区 景区,50.78513495,75,
1000005,赤峰,内蒙古,4A,116.71908185,达里湖―南岸景区 景区,43.24455401,100,
1000006,呼伦贝尔,内蒙古,非A级,117.62815984,呼伦湖,49.33717759,40,
1000007,呼伦贝尔,内蒙古,非A级,122.64349548,金龙山温泉,48.06324297,48,
1000008,包头,内蒙古,4A,110.32102982,内蒙古五当召 景区,40.7977227,55,宗教寺庙
1000009,呼伦贝尔,内蒙古,4A,120.65276361,白桦林 景区,51.66081822,53,园林
1000010,赤峰,内蒙古,3A,118.65930673,紫蒙湖旅游风景区 景区,41.39665952,58,
1000011,赤峰,内蒙古,4A,118.3750441,道须沟旅游风景区 景区,41.46075571,75,
1000012,赤峰,内蒙古,4A,117.54170445,克什克腾石阵 景区,43.93644784,135,草原
1000013,呼和浩特,内蒙古,非A级,111.23823012,黄河梦幻水世界,40.22216762,45,
1000014,通辽,内蒙古,非A级,122.23787206,联众海洋之星水上乐园,43.38478256,85,游乐场
1000015,阿拉善盟,内蒙古,4A,105.88100741,贺兰山福因寺 景区,38.98668608,56,宗教寺庙
1000016,呼伦贝尔,内蒙古,非A级,117.4446443,满洲里蒙根花温泉水世界,49.61931427,78,
1000017,乌兰察布市,内蒙古,4A,113.79722561,苏木山 景区,40.58778853,45,
1000018,鄂尔多斯,内蒙古,非A级,109.84108731,伊景园城市沙山景区,39.58853048,68,
1000019,呼伦贝尔,内蒙古,非A级,120.18435878,中科丽丽娅俄罗斯文化旅游区,50.21562994,50,
1000020,呼伦贝尔,内蒙古,5A,117.40538707,满洲里口岸套娃景区 景区,49.62083915,140,
1000021,鄂尔多斯,内蒙古,,110.00974400,鄂尔多斯市图书馆,39.81696500,,
1000022,鄂尔多斯,内蒙古,4A,109.72034175,东联动漫城 景区,39.8543987,55,
1000023,赤峰,内蒙古,4A,117.83847463,克旗青山国家地质公园 景区,43.24386187,120,
1000024,鄂尔多斯,内蒙古,非A级,109.78163018,九城宫旅游度假区,39.79665651,2,滑雪
1000025,呼伦贝尔,内蒙古,4A,120.16441031,额尔古纳湿地景区 景区,50.25186311,60,草原
1000026,呼和浩特,内蒙古,非A级,110.99780436,哈素海码头,40.62618193,85,
1000027,包头,内蒙古,非A级,109.86615315,包头海洋世界,40.6644773,79,
1000028,赤峰,内蒙古,非A级,117.2393334,白音敖包沙地云杉,43.53657521,45,草原
1000029,呼伦贝尔,内蒙古,非A级,117.67272464,贝尔湖,47.91671849,28,
1000030,乌兰察布市,内蒙古,,111.78802612,乌兰察布岩画,41.69230549,,
1000031,鄂尔多斯,内蒙古,非A级,107.52396174,布龙湖温泉度假区,38.93490777,138,温泉
1000032,包头,内蒙古,4A,110.71466319,美岱召 景区,40.61245028,25,宗教寺庙
1000033,呼伦贝尔,内蒙古,5A,117.36107739,满洲里国门景区 景区,49.63532521,78,历史遗迹
1000034,阿拉善盟,内蒙古,4A,105.67005388,南寺风景区 景区,38.63093739,70,宗教寺庙
1000035,乌兰察布市,内蒙古,非A级,113.15615442,永亮温泉水世界,41.00060629,95,
1000036,赤峰,内蒙古,非A级,117.54432587,龙口旅游休闲度假区,43.11435966,75,
1000037,阿拉善盟,内蒙古,非A级,104.89213687,腾格里天鹅湖景区,38.42393308,35,河流湖泊
1000038,赤峰,内蒙古,3A,119.99507911,敖汉温泉城 景区,41.93745946,35,温泉
1000039,锡林郭勒盟,内蒙古,非A级,112.6608992,赛汉塔拉温泉,42.75847439,98,
1000040,阿拉善盟,内蒙古,4A,104.93875781,通湖草原 景区,37.60308576,54,草原
1000041,呼伦贝尔,内蒙古,4A,123.44584976,鄂伦春布苏里景区 景区,50.56966615,75,
1000042,赤峰,内蒙古,4A,119.05103323,玉龙沙湖景区 景区,43.03909729,75,河流湖泊
1000043,鄂尔多斯,内蒙古,4A,109.89717374,鄂尔多斯野生动物园 景区,39.84498435,40,
1000044,呼和浩特,内蒙古,非A级,111.98817698,呼和浩特梦幻海乐园,40.63012352,59,
1000045,鄂尔多斯,内蒙古,非A级,109.95005865,万家惠欢乐世界,39.8512484,80,
1000046,呼伦贝尔,内蒙古,非A级,119.58507535,黑山头列夫湿地庄园景区,50.22123526,36,户外拓展
1000047,呼和浩特,内蒙古,非A级,111.22457216,神泉生态旅游景区,40.1928825,190,河流湖泊
1000048,赤峰,内蒙古,非A级,118.73268563,热水天沐温泉,41.47926871,65,
1000049,呼和浩特,内蒙古,4A,111.66282689,席力图召 景区,40.80556458,24,宗教寺庙
1000050,乌海,内蒙古,非A级,106.82126016,乌海蒙根花温泉水世界,39.80537135,58,水世界
1000051,乌兰察布市,内蒙古,非A级,113.14737512,平地泉水世界,40.94489941,108,
1000052,鄂尔多斯,内蒙古,非A级,107.71996076,碧海阳光国际温泉,38.90416829,138,温泉
1000053,呼和浩特,内蒙古,非A级,110.99960543,哈素海戏水乐园,40.63281896,148,
1000054,鄂尔多斯,内蒙古,4A,108.63485519,鄂尔多斯草原 景区,39.81762368,88,草原
1000055,赤峰,内蒙古,4A,119.37333205,召庙北五台 景区,43.855078,40,宗教寺庙
1000056,鄂尔多斯,内蒙古,4A,109.36582838,苏泊罕大草原旅游景区 景区,39.67562141,90,草原
1000057,鄂尔多斯,内蒙古,非A级,110.51563893,蒙根花万通温泉水世界,40.33163715,88,水世界
1000058,包头,内蒙古,非A级,109.78062805,芝麻开门水上威尼斯,40.70620284,65,
1000059,赤峰,内蒙古,4A,117.28388982,乌兰布统景区 景区,42.49001359,115,
1000060,包头,内蒙古,非A级,111.20019347,红格尔敖包,41.40620063,54,
1000061,呼伦贝尔,内蒙古,非A级,120.44148379,额尔古纳国家湿地公园,50.36719313,70,
1000062,乌海,内蒙古,非A级,106.78333635,乌海湖景区,39.65744781,65,湿地
1000063,乌海,内蒙古,非A级,106.82143503,乌海蒙根花游乐园,39.80187009,110,儿童乐园
1000064,呼伦贝尔,内蒙古,非A级,122.73309054,牧人寨旅游度假区,48.69361516,60,
1000065,赤峰,内蒙古,非A级,118.89837927,赤峰梦幻海欢乐世界,42.27357157,34,
1000066,赤峰,内蒙古,非A级,117.17026479,诺根塔拉野生动物乐园,42.56767174,65,
1000067,赤峰,内蒙古,4A,116.67215421,达里湖―北岸景区 景区,43.40711092,70,
1000068,鄂尔多斯,内蒙古,4A,108.54111091,库布其国家沙漠公园（七星湖景区） 景区,40.64743238,99,河流湖泊
1000069,呼伦贝尔,内蒙古,2A,120.04076854,哈乌尔河景区 景区,50.96445808,45,公园
1000070,呼伦贝尔,内蒙古,4A,120.68019722,莫尔道嘎森林公园 景区,51.33709213,155,
1000071,乌兰察布市,内蒙古,非A级,113.18835432,霸王河欢乐世界,41.00244129,88,
1000072,呼和浩特,内蒙古,4A,111.66065859,大召寺 景区,40.80475987,34,
1000073,呼伦贝尔,内蒙古,非A级,119.54224367,诺干湖景区,47.94852125,40,
1000074,鄂尔多斯,内蒙古,4A,106.66270805,马兰花草原 景区,38.36355365,80,
1000075,鄂尔多斯,内蒙古,,109.87279500,鄂尔多斯国际赛车场,39.62484000,,
1000076,阿拉善盟,内蒙古,非A级,101.28604948,策克口岸,42.59167243,29,
1000077,巴彦淖尔市,内蒙古,非A级,108.27085746,宇鑫温泉水世界,41.09508702,55,水世界
1000078,包头,内蒙古,4A,109.4540167,梅力更 景区,40.67026922,48,山岳
1000079,兴安盟,内蒙古,5A,120.30613891,阿尔山国家森林公园 景区,47.28058431,275,
1000080,乌兰察布市,内蒙古,4A,112.66938356,岱海旅游度假区 景区,40.6130473,100,
1000081,通辽,内蒙古,4A,121.78314602,库伦三大寺 景区,42.73673168,45,
1000082,呼伦贝尔,内蒙古,4A,119.72792896,世界反法西斯战争海拉尔纪念园 景区,49.25048933,45,历史遗迹
1000083,呼和浩特,内蒙古,非A级,110.99633071,哈素海天鹅堡温泉,40.6282771,228,温泉
1000084,呼和浩特,内蒙古,非A级,111.81932055,都市现代农业园,40.71932009,25,
1000085,兴安盟,内蒙古,3A,120.109986,阿尔山奥伦布坎风景区 景区,47.05194276,60,历史遗迹
1000086,包头,内蒙古,非A级,109.83455094,包头乐园,40.64340962,49,游乐场
1000087,通辽,内蒙古,,122.27240219,通辽,43.62567280,,
1000088,乌兰察布市,内蒙古,,113.13028207,乌兰察布草原,40.99663978,,
1000089,鄂尔多斯,内蒙古,5A,109.96750402,鄂尔多斯响沙湾 景区,40.2487078,120,沙漠
1000090,乌兰察布市,内蒙古,非A级,112.60755392,辉腾锡勒草原国际马术演艺小镇,41.18012108,120,
1000091,呼伦贝尔,内蒙古,,119.276081,可汗宫,49.268386,,草原沙漠
1000092,呼伦贝尔,内蒙古,,117.68575,猛犸象公园儿童科技馆,49.501779,,
1000094,呼伦贝尔,内蒙古,,119.769199,森林原生态舞台剧敖鲁古雅,49.200642,,赛事演出
1000095,呼伦贝尔,内蒙古,,119.441657,巴尔虎狼岛,49.324807,,动植物园
1000096,包头,内蒙古,,109.780628,芝麻开门威尼斯水上乐园,40.706203,128,漂流戏水
1000097,呼伦贝尔,内蒙古,,119.269109,中俄边境湿地,49.420296,,田园度假
1000098,呼和浩特,内蒙古,,111.724685,御府汤泉,40.851255,22,
1000099,赤峰,内蒙古,,119.402271,辽上京遗址,43.969905,,古迹遗址
1000100,鄂尔多斯,内蒙古,4A,109.792758,康巴什旅游区,39.592338,,田园度假
1000101,呼伦贝尔,内蒙古,,119.9201460937,室韦,50.8286711055,,水乡古镇
1000102,锡林郭勒盟,内蒙古,,116.136948,灰腾草原,44.078961,,草原沙漠
1000103,呼伦贝尔,内蒙古,,119.542231,诺干湖,47.948516,40,
1000104,呼伦贝尔,内蒙古,,119.760822,呼伦贝尔一塔两寺,49.201636,,园林景观
1000105,呼伦贝尔,内蒙古,4A,118.055468,巴尔虎蒙古部落,49.50612,24,
1000106,呼伦贝尔,内蒙古,3A,119.723729,海拉尔国家森林公园,49.218999,,田园度假
1000107,赤峰,内蒙古,4A,119.376537,召庙北五台,43.852821,1,宗教祈福
1000108,赤峰,内蒙古,,120.109021,响水玉瀑,42.444802,,
1000109,呼和浩特,内蒙古,,110.996331,哈素海码头水上观光,40.628271,,都市观光
1000110,包头,内蒙古,4A,110.717548,美岱召,40.607474,25,
1000111,锡林郭勒盟,内蒙古,,116.198529,元上都遗址(金莲川),42.364743,,
1000112,通辽,内蒙古,,120.24597,章古台佛塔,43.471983,,
1000113,阿拉善盟,内蒙古,,101.286079,额济纳旗策克口岸景区,42.589628,,
1000114,鄂尔多斯,内蒙古,4A,107.343731,大沙头生态文化旅游区,38.290802,,
1000115,锡林郭勒盟,内蒙古,,116.529746,多伦诺尔我有戏国际草原音乐季,42.212002,,都市观光
1000116,赤峰,内蒙古,,117.238302,白音敖包国家级自然保护区,43.537305,45,草原沙漠
1000117,呼伦贝尔,内蒙古,,120.652763,白桦林景区,51.66082,53,
1000118,兴安,内蒙古,,119.961627,阿尔山天池空中游览,47.166667,,都市观光
1000119,阿拉善盟,内蒙古,,101.145027,黑城怪树林,41.770348,,古迹遗址
1000120,鄂尔多斯,内蒙古,4A,109.335869,库布齐沙漠,40.331766,280,草原沙漠
1000121,乌兰察布,内蒙古,4A,112.530927,黄花沟草原旅游区,41.140556,225,湖光山色
1000122,呼伦贝尔,内蒙古,,118.583527,胡列也吐度假村,49.852394,,
1000123,呼和浩特,内蒙古,,111.880874,千古马颂,40.942538,162,赛事演出
1000126,赤峰,内蒙古,,118.660084,巴林奇石馆,43.530166,,
1000127,呼伦贝尔,内蒙古,,123.083975,仙人洞,48.528565,,
1000128,阿拉善,内蒙古,,105.38012,阿拉善英雄会梦想冰雪世界主题嘉年华,38.766104,,主题乐园
1000129,赤峰,内蒙古,,116.969223,贡格尔草原,43.386668,,
1000130,呼伦贝尔,内蒙古,,120.041099,哈乌尔河,50.964573,45,
1000131,赤峰,内蒙古,,118.676679,赤峰龙泉寺,41.942284,,宗教祈福
1000132,鄂尔多斯,内蒙古,4A,108.791049,萨拉乌苏旅游区,37.983697,40,湖光山色
1000133,呼和浩特,内蒙古,4A,111.790959,蒙牛工业旅游景区,40.485684,,都市观光
1000135,呼伦贝尔,内蒙古,,119.760822,中俄友谊大桥,49.201636,,古迹遗址
1000137,鄂尔多斯,内蒙古,,107.75202,百眼窟,39.286297,,
1000138,乌海,内蒙古,,106.821605,蒙根花游乐园,39.802332,,主题乐园
1000139,鄂尔多斯,内蒙古,,109.37989,鄂尔多斯塞外农耕文化体验园,39.853483,,民俗风情
1000141,呼和浩特,内蒙古,,111.683185,内蒙古博物院,40.828556,,博物馆
1000143,呼伦贝尔,内蒙古,,121.797713,根河湿地,51.375925,,
1000144,呼和浩特,内蒙古,,111.127577,希拉穆仁草原花海,41.363296,38,草原沙漠
1000145,阿拉善盟,内蒙古,,105.684781,阿拉善盟延福寺,38.845422,,宗教祈福
1000146,呼伦贝尔,内蒙古,,119.683514,弘吉剌部蒙古大营,50.210407,,
1000147,呼和浩特,内蒙古,3A,111.629521,大青山野生动物园,40.875833,,动植物园
1000148,呼伦贝尔,内蒙古,5A,117.405672,满洲里口岸套娃景区,49.617905,140,主题乐园
1000149,北京,内蒙古,,117.35857,青山冰臼群,43.218237,,
1000150,鄂尔多斯,内蒙古,,109.794825,鄂尔多斯大剧院,39.608577,,民俗风情
1000151,兴安盟,内蒙古,4A,119.956268,中国温泉博物馆,47.173383,248,温泉
1000152,呼伦贝尔,内蒙古,,123.673012,嘎仙洞森林公园,50.606686,,
1000153,呼伦贝尔,内蒙古,,119.784716,俄罗斯大马戏,49.207126,,主题乐园
1000154,赤峰,内蒙古,,118.961196,西拉沐沦响水漂流,42.279305,,
1000155,赤峰,内蒙古,4A,117.3641118941,阿斯哈图石林景区,43.5400378282,135,湖光山色
1000156,赤峰,内蒙古,4A,118.514064,喀喇沁亲王府,41.845472,,
1000157,呼和浩特,内蒙古,,111.894209,万部华严经塔,40.844336,,宗教祈福
1000158,呼伦贝尔,内蒙古,,120.185825,额尔古纳民族风情冰雪节,50.245741,,当地玩乐门票
1000159,呼和浩特,内蒙古,,111.680449,加拿大原版全场互动儿童剧《你是演奏家》,40.827878,,
1000161,阿拉善盟,内蒙古,,114.377938,巴丹湖景区,27.985772,,草原沙漠
1000162,呼和浩特,内蒙古,,111.741036,呼和浩特乐汤汇温泉生活馆,40.836491,59,温泉
1000163,赤峰,内蒙古,,119.398237,辽太祖陵,43.989941,,古迹遗址
1000164,呼伦贝尔,内蒙古,3A,119.760822,莫尔道嘎国家森林公园,49.201636,,湖光山色
1000165,呼伦贝尔,内蒙古,,120.156486,冰泉小镇露西演艺,50.249605,,赛事演出
1000166,呼伦贝尔,内蒙古,2A,122.338386,喇嘛山国家森林公园,48.333311,,
1000168,呼和浩特,内蒙古,,111.685738,碧海云天大浴场（烟厂店）,40.797456,,门票
1000170,呼和浩特,内蒙古,,111.819321,呼和浩特“洛阳牡丹节”,40.71932,,
1000171,乌兰察布,内蒙古,,112.591562,国际马术演艺小镇景区,41.180652,,赛事演出
1000172,呼和浩特,内蒙古,4A,111.691507,昭君博物院,40.712193,,古迹遗址
1000173,呼伦贝尔,内蒙古,,120.090449,哈克遗址博物馆,49.224932,,博物馆
1000174,赤峰,内蒙古,,119.280766,荣宪公主墓,44.203431,,
1000175,鄂尔多斯,内蒙古,4A,109.438476,恩格贝生态旅游区,40.40469,,草原沙漠
1000177,兴安盟,内蒙古,,119.951619,梦幻阿尔山剧场,47.179487,128,民俗风情
1000178,通辽,内蒙古,,122.26661,大乐林寺,43.637882,,宗教祈福
1000179,呼伦贝尔,内蒙古,,119.106095,白音乌拉游牧人家,49.297566,,田园度假
1000180,通辽,内蒙古,4A,123.333146,通辽市孝庄园文化旅游区,44.132389,,
1000181,呼和浩特,内蒙古,,111.660351,乌素图召,40.828319,,湖光山色
1000182,赤峰,内蒙古,,117.5377957576,黄岗梁国家森林公园,43.5953414602,,田园度假
1000183,呼和浩特,内蒙古,,111.688062,木子塘汗蒸生活馆,40.863598,,温泉
1000184,锡林郭勒盟,内蒙古,4A,112.02525,二连浩特国家地质公园,43.728267,,
1000185,呼伦贝尔,内蒙古,,117.364283,满洲里中俄互市贸易旅游区,49.634307,,
1000187,呼和浩特,内蒙古,,111.304435,喇嘛洞召,40.805893,,
1000188,通辽,内蒙古,4A,122.191554,大青沟国家级自然保护区,42.828182,,田园度假
1000189,锡林郭勒盟,内蒙古,,116.136948,白音查干敖包,44.078961,,草原沙漠
1000190,呼伦贝尔,内蒙古,3A,120.676138,海拉尔西山森林公园,49.276334,,
1000191,呼和浩特,内蒙古,,111.726662,碧海云天大浴场（幸福小区店）,40.849707,,温泉
1000192,鄂尔多斯,内蒙古,,108.791049,萨拉乌苏遗址,37.983694,,古迹遗址
1000193,呼和浩特,内蒙古,,111.574498,内蒙古伊利工业园区,40.800622,,主题乐园
1000195,呼和浩特,内蒙古,,111.745222,一带一路，交响组曲,40.845798,,赛事演出
1000196,乌海,内蒙古,,106.790918,乌海湖国家水利风景区,39.634761,65,湖光山色
1000197,锡林郭勒,内蒙古,,116.668522,白音部落冰雪世界,42.124149,,
1000198,阿拉善盟,内蒙古,,102.443856,海森楚鲁怪石城,40.186229,,
1000199,阿拉善盟,内蒙古,,102.443856,曼德拉山岩画,40.186229,,
1000200,呼伦贝尔,内蒙古,,116.821845,孛儿帖景区,48.67105,,
1000201,呼伦贝尔,内蒙古,,120.042882,侵华日军海拉尔要塞北山遗址,49.279245,,古迹遗址
1000202,呼伦贝尔,内蒙古,4A,119.727804,世界反法西斯战争海拉尔纪念园,49.250749,,古迹遗址
1000203,巴彦淖尔,内蒙古,,107.318717,浩彤水上乐园,40.80725,,主题乐园
1000204,呼和浩特,内蒙古,,111.660714,大召寺,40.804868,3,宗教祈福
1000205,呼伦贝尔,内蒙古,,119.74511,达尔吉林寺,49.219444,,宗教祈福
1000206,呼和浩特,内蒙古,,110.998588,哈素海冰雪世界,40.626991,,滑雪
1000207,锡林郭勒盟,内蒙古,,116.498639,南沙梁景区,42.196601,,草原沙漠
1000208,鄂尔多斯,内蒙古,,111.221085,准域娱乐水上乐园,39.878958,,
1000209,锡林郭勒盟,内蒙古,,116.02734,乌珠穆沁草原,43.939705,,草原沙漠
1000210,呼伦贝尔,内蒙古,5A,118.055468,满洲里国门景区,49.50612,78,
1000211,赤峰,内蒙古,,118.930761,紫蒙湖风景区,42.297112,35,湖光山色
1000213,呼伦贝尔,内蒙古,4A,119.246306,呼和诺尔草原旅游区,49.306137,28,草原沙漠
1000214,呼和浩特,内蒙古,,111.980448,山水樱桃庄园,40.906458,,主题乐园
1000215,呼和浩特,内蒙古,,111.745356,麦森薰衣草庄园,40.598703,,田园度假
1000216,呼和浩特,内蒙古,,111.668553,东方罗玛国际商务会馆,40.817297,33,温泉
1000217,呼和浩特,内蒙古,,111.663508,碧海云天商务会馆（中山西路店）,40.814312,,门票
1000218,阿拉善盟,内蒙古,,105.695683,腾格里沙漠天鹅湖景区,38.843075,,草原沙漠
1000219,锡林郭勒盟,内蒙古,,116.136948,突厥石人墓,44.078961,,古迹遗址
1000221,乌海,内蒙古,,106.831999,胡杨岛,39.683177,,海滨岛屿
1000222,兴安盟,内蒙古,,119.97759,阿尔山奥伦布坎风景区,46.919084,,
1000223,呼伦贝尔,内蒙古,,123.17247,达尔滨湖国家森林公园,49.494771,,
1000224,阿拉善盟,内蒙古,,102.443856,红墩子峡谷,40.186229,,
1000225,通辽,内蒙古,,122.269012,英皇儿童城,43.669439,,主题乐园
1000226,阿拉善,内蒙古,,105.382315,英雄会COART音乐嘉年华,38.776593,,赛事演出
1000227,鄂尔多斯,内蒙古,,109.960068,2017第2届草原国际舞蹈嘉年华,39.837948,,
1000228,上海,内蒙古,,106.677657,马兰花草原,38.386969,80,
1000229,锡林郭勒盟,内蒙古,4A,116.075376,贝子庙,43.956841,,宗教祈福
1000230,呼伦贝尔,内蒙古,,123.817278,达拓跋焘森林公园,50.348755,,
1000231,赤峰,内蒙古,,119.557845,木叶山旅游区,43.259168,,
1000232,呼伦贝尔,内蒙古,,119.408817,赛佰诺马场,50.213121,,骑行
1000233,赤峰,内蒙古,,118.905499,打虎石水库,41.571041,,
1000234,呼和浩特,内蒙古,,111.473685,老牛湾,39.924046,,
1000235,呼伦贝尔,内蒙古,,120.11734,三河马科技博物馆,50.461222,,
1000236,呼和浩特,内蒙古,,111.669991,中铭奇石博物馆,40.803689,,博物馆
1000237,通辽,内蒙古,,119.760822,科尔沁草原,49.201636,,草原沙漠
1000238,赤峰,内蒙古,,118.9998618433,梵宗寺,42.9685716664,,宗教祈福
1000239,阿拉善盟,内蒙古,,100.099512,怪树林,41.6938,,
1000240,巴彦淖尔,内蒙古,,107.435388,碧海云天休闲会馆（临河店）,40.763919,,温泉
1000241,鄂尔多斯,内蒙古,4A,109.365877,苏泊罕大草原,39.675573,90,草原沙漠
1000242,赤峰,内蒙古,,119.344251,辽中京遗址,41.604186,,古迹遗址
1000243,通辽,内蒙古,,122.260363,莫力庙水库沙湖旅游区,43.633756,,
1000244,阿拉善盟,内蒙古,4A,104.938954,通湖草原,37.603211,,草原沙漠
1000245,赤峰,内蒙古,4A,117.548204,达里诺尔湖,43.264269,,湖光山色
1000247,鄂尔多斯,内蒙古,5A,109.793443,成吉思汗陵旅游景区,39.376817,8,
1000248,锡林郭勒盟,内蒙古,,116.136948,锡林郭勒大草原彩跑文化节,44.078961,,草原沙漠
1000249,呼和浩特,内蒙古,,111.864173,呼和浩特国花牡丹园,40.936054,,
1000250,阿拉善盟,内蒙古,,100.984228,弱水金沙湾胡杨林,41.828243,,
1000251,鄂尔多斯,内蒙古,5A,109.968018,鄂尔多斯响沙湾,40.249002,106,草原沙漠
1000252,阿拉善盟,内蒙古,,105.791092,内蒙古沙鹰国际射击俱乐部,38.773608,,
1000253,呼伦贝尔,内蒙古,3A,119.826839,巴彦呼硕草原旅游区,48.867602,,
1000254,兴安盟,内蒙古,,120.176384,阿尔山白狼峰景区,47.020751,,
1000255,阿拉善盟,内蒙古,,102.443856,巴丹吉林沙漠,40.186229,,
1000257,呼和浩特,内蒙古,,111.53763,创智文化健身旅游园,40.958582,,团队拓展
1000258,赤峰,内蒙古,4A,122.210641,大青沟,42.768805,,湖光山色
1000259,鄂尔多斯,内蒙古,,110.379586,蒙根花农乐谷,40.329386,,主题乐园
1000261,锡林郭勒盟,内蒙古,,117.81045,乌里雅斯太山,45.826665,,
1000262,呼伦贝尔,内蒙古,4A,120.164408,额尔古纳湿地,50.252423,60,田园度假
1000263,呼和浩特,内蒙古,,111.88089,呼和塔拉“助力世界杯，国际狂欢节”,40.942552,,民俗风情
1000264,呼伦贝尔,内蒙古,,118.149841,甘珠尔庙,48.366172,,
1000265,乌兰察布,内蒙古,,113.773721,苏木山,40.952666,45,湖光山色
1000266,鄂尔多斯,内蒙古,,109.753296,鄂尔多斯东海温泉,39.587081,,温泉
1000267,赤峰,内蒙古,,117.519357,龙口旅游度假区,43.110065,75,漂流戏水
1000268,通辽,内蒙古,,122.633592,双合尔山白塔,43.3131,,
1000269,北京,内蒙古,,117.35857,乌兰布统旅游区,43.218237,115,
1000271,呼伦贝尔,内蒙古,,121.063669,卡鲁奔国家湿地公园,51.002192,,
1000272,呼和浩特,内蒙古,,112.08498,子昂奶牛主题公园,40.6081,,
1000273,赤峰,内蒙古,,118.733807,赤峰热水天沐温泉,41.477891,65,温泉
1000274,巴彦淖尔,内蒙古,,108.273793,宇鑫热带雨林海洋世界,41.09484,74,漂流戏水
1000275,呼伦贝尔,内蒙古,,119.913884,蒙古之源文化旅游景区,51.34784,130,
1000276,呼伦贝尔,内蒙古,,119.761769,白音呼硕草原,49.153125,,草原沙漠
1000277,呼伦贝尔,内蒙古,,119.491037,黑山头老高马场,50.209008,,骑行
1000278,呼伦贝尔,内蒙古,,119.783516,中俄蒙冰雪乐园,49.255154,,滑雪
1000279,呼伦贝尔,内蒙古,,117.45604,满洲里国际饭店歌舞演艺,49.59648,168,赛事演出
1000280,赤峰,内蒙古,,118.543304,黑里河峡谷漂流,41.425236,,游船
1000281,包头,内蒙古,,109.814838,昆仑国际滑雪场,40.759692,,滑雪
1000282,呼和浩特,内蒙古,,111.660351,蒙亮风情园,40.828319,,草原沙漠
1000283,阿拉善盟,内蒙古,,100.21596,东风航天城（酒泉卫星发射中心）,40.987622,,
1000284,兴安盟,内蒙古,,121.216079,突泉温泉滑雪场,45.834112,,
1000285,呼和浩特,内蒙古,,111.671784,仟胜冰雪世界,40.85596,,滑雪
1000286,呼伦贝尔,内蒙古,4A,122.740705,扎兰屯吊桥公园,48.026405,,园林景观
1000287,赤峰,内蒙古,,118.98199,卡酷水乐园,42.28265,,主题乐园
1000288,赤峰,内蒙古,,119.16847,辽大明塔,41.57856,,古迹遗址
1000289,呼和浩特,内蒙古,,111.708862,呼市海德酒店浴场,40.802206,,温泉
1000290,乌兰察布,内蒙古,,113.867147,梓瑞达休闲农庄,40.940787,,
1000291,呼伦贝尔,内蒙古,,124.505904,中国达斡尔民族园,48.574266,,
1000292,赤峰,内蒙古,,118.651653,赤峰宁城藏龙谷景区,41.380684,,湖光山色
1000293,呼伦贝尔,内蒙古,4A,123.836342,红花尔基樟子松国家森林公园,49.877744,,
1000294,通辽,内蒙古,,122.297657,通辽纳斯盾大都汇洗浴中心,43.640493,18,
1000295,包头,内蒙古,3A,109.846239,梅力更风景区,40.647119,48,湖光山色
1000296,乌兰察布,内蒙古,,113.074696,怡水山庄温泉,41.138619,,温泉
1000297,阿拉善盟,内蒙古,,104.873152,腾格里沙漠月亮湖,37.939926,90,
1000298,呼伦贝尔,内蒙古,,118.772244,诺门罕战争遗址,47.782503,,
1000299,鄂尔多斯,内蒙古,4A,108.634838,鄂尔多斯草原,39.817596,82,
1000300,赤峰,内蒙古,,119.047623,道谷南山滑雪场,42.224023,,滑雪
1000301,呼伦贝尔,内蒙古,,117.9740744943,呼伦贝尔大草原,49.0914875419,,草原沙漠
1000302,鄂尔多斯,内蒙古,4A,108.248033,七星湖沙漠生态旅游景区,39.837521,99,
1000303,赤峰,内蒙古,,118.930761,赤峰美林谷滑雪场,42.297112,,滑雪
1000304,鄂尔多斯,内蒙古,3A,109.794393,鄂尔多斯康巴什康镇景区,39.6168,,
1000305,赤峰,内蒙古,,122.999321,道须沟旅游景区,40.482338,66,
1000306,鄂尔多斯,内蒙古,4A,109.866874,银肯塔拉沙漠生态旅游区,40.227811,,草原沙漠
1000307,乌兰察布,内蒙古,4A,114.053683,察尔湖度假旅游区,40.867214,38,
1000308,阿拉善盟,内蒙古,,105.038247,贺兰山国家狩猎场,39.547806,,
1000309,鄂尔多斯,内蒙古,,107.151406,阿尔泰石窟,39.504094,,
1000310,阿拉善盟,内蒙古,4A,105.038247,贺兰山福因寺,39.547806,56,
1000311,阿拉善盟,内蒙古,,101.199388,额济纳胡杨林,42.002012,,
1000312,通辽,内蒙古,,122.260363,珠日河草原,43.633756,,草原沙漠
1000313,巴彦淖尔,内蒙古,,107.053773,三盛公黄河游乐园,40.343632,,
1000314,呼和浩特,内蒙古,,111.6623183978,呼和浩特清真大寺,40.8153048425,,宗教祈福
1000315,呼伦贝尔,内蒙古,,117.451528,满洲里冰雪公园,49.600944,,主题乐园
1000316,鄂尔多斯,内蒙古,,109.976161,铁牛（大浪淘沙）汗蒸温泉会所,39.824856,35,
1000317,赤峰,内蒙古,,118.94609,辽庆陵,43.684787,,
1000318,赤峰,内蒙古,,118.769344,少郎川农业休闲旅游度假区,42.85839,55,
1000319,呼伦贝尔,内蒙古,,119.751652,都统衙门,49.213882,,古迹遗址
1000321,鄂尔多斯,内蒙古,,109.964325,鄂尔多斯济支州岛韩蒸温泉时代,39.811365,48,温泉
1000322,锡林郭勒盟,内蒙古,,119.374,九曲弯,45.5345,,
1000323,呼伦贝尔,内蒙古,4A,123.450434,布苏里旅游区,50.567566,,
1000324,包头,内蒙古,,110.013753,2016包头爱飞客飞行那达慕,40.570876,,都市观光
1000325,赤峰,内蒙古,,118.705928,马鞍山国家森林公园,41.933242,,田园度假
1000326,兴安盟,内蒙古,5A,120.428637,阿尔山国家森林公园,47.289691,250,
1000327,赤峰,内蒙古,,116.672349,克什克腾世界地质公园,43.411899,,
1000328,锡林郭勒盟,内蒙古,,116.136948,白音锡勒草原牧场,44.078961,,草原沙漠
1000329,呼伦贝尔,内蒙古,,119.760822,金帐汗蒙古部落,49.201636,,民俗风情
1000330,呼和浩特,内蒙古,,111.695191,将军衙署博物馆,40.831674,,古迹遗址
1000331,通辽,内蒙古,,121.077151,古榆园,43.573955,,
1000332,乌海,内蒙古,2A,106.83199909716231,青山翰墨园,39.683177006785236,,
1000333,鄂尔多斯,内蒙古,2A,109.99370625145134,油松王,39.81648956060153,,
1000334,锡林郭勒盟,内蒙古,,116.02733968895716,多伦吐力根天堂草原漂流,43.93970484232425,,
1000335,呼和浩特,内蒙古,,111.6603505200542,多茂果蔬采摘园,40.828318873081585,,
1000337,呼和浩特,内蒙古,,111.6603505200542,大青山抗日根据地,40.828318873081585,,
1000338,呼和浩特,内蒙古,,111.6603505200542,绿忆工坊,40.828318873081585,,
1000339,呼伦贝尔,内蒙古,,119.76082179399947,额尔古纳湿地冰泉度假小镇,49.201636054604336,,
1000340,呼伦贝尔,内蒙古,2A,119.76082179399947,民族博物馆,49.201636054604336,,
1000342,乌海,内蒙古,2A,106.83199909716231,蒙古族家具博物馆,39.683177006785236,,
1000343,包头,内蒙古,3A,109.84623853249181,赛汗塔拉旅游娱乐园,40.64711942570857,,
1000345,包头,内蒙古,,109.84623853249181,包头奥林匹克冰雪大世界,40.64711942570857,,
1000346,呼和浩特,内蒙古,,111.6603505200542,内蒙古青少年生态园,40.828318873081585,,
1000347,包头,内蒙古,,109.84623853249181,宝宝贵草莓采摘园（A区店）,40.64711942570857,,
1000348,巴彦淖尔,内蒙古,,107.42380671968002,大桦背,40.76917990242912,,
1000349,鄂尔多斯,内蒙古,,109.99370625145134,福乐迪冰雪乐园,39.81648956060153,,
1000350,兴安盟,内蒙古,,122.04816651406564,乌兰浩特健翔滑雪场,46.08375706518232,,
1000351,呼和浩特,内蒙古,,111.6603505200542,蚂蚁部落冰雪乐园,40.828318873081585,,
1000352,赤峰,内蒙古,,118.9307611921676,大明塔,42.297112320317325,,
1000353,呼和浩特,内蒙古,,111.6603505200542,绥远将军府,40.828318873081585,,
1000354,鄂尔多斯,内蒙古,,109.99370625145134,蒙元文化影视城,39.81648956060153,,
1000356,呼和浩特,内蒙古,,111.6603505200542,乐汤汇温泉生活馆,40.828318873081585,,
1000357,呼伦贝尔,内蒙古,,119.76082179399947,186彩带河,49.201636054604336,,
1000358,鄂尔多斯,内蒙古,,109.99370625145134,内蒙古鄂尔多斯铁牛（大浪淘沙）汗蒸温泉会所,39.81648956060153,,
1000359,呼伦贝尔,内蒙古,,119.76082179399947,乌兰泡,49.201636054604336,,
1000360,阿拉善盟,内蒙古,,105.69568287112703,居延海,38.84307526440767,,
1000361,呼伦贝尔,内蒙古,3A,119.76082179399947,诺门罕旅游景区,49.201636054604336,,
1000362,通辽,内蒙古,,122.26036326322144,通辽万达宝贝王,43.633756072995986,,
1000363,包头,内蒙古,,109.84623853249181,大雁滩水上乐园,40.64711942570857,,
1000365,呼和浩特,内蒙古,,111.6603505200542,呼和浩特市植物园,40.828318873081585,,
1000366,赤峰,内蒙古,,118.9307611921676,少郎川农业休闲旅游度假区南国世界,42.297112320317325,,
1000367,阿拉善盟,内蒙古,,105.69568287112703,塔王府,38.84307526440767,,
1000368,乌兰察布,内蒙古,,113.11284639067514,红召九龙湾,41.02236294675116,,
1000370,兴安盟,内蒙古,,122.04816651406564,好森沟风景区,46.08375706518232,,
1000373,乌兰察布,内蒙古,,113.11284639067514,岱海遗址群,41.02236294675116,,
1000375,呼和浩特,内蒙古,2A,111.6603505200542,云滚洞,40.828318873081585,,
1000376,呼伦贝尔,内蒙古,4A,119.76082179399947,巴尔虎部落,49.201636054604336,,
1000377,鄂尔多斯,内蒙古,,109.99370625145134,宝龙儿童游乐城,39.81648956060153,,
1000378,赤峰,内蒙古,,118.9307611921676,福会寺,42.297112320317325,,
1000379,包头,内蒙古,,109.84623853249181,淘气堡乐园,40.64711942570857,,
1000381,包头,内蒙古,,109.84623853249181,昆都会召,40.64711942570857,,
1000382,鄂尔多斯,内蒙古,,109.99370625145134,橡胶坝冰雪乐园,39.81648956060153,,
1000383,呼和浩特,内蒙古,,111.6603505200542,X-ROOM超级密室（呼和浩特市）,40.828318873081585,,
1000384,赤峰,内蒙古,,118.9307611921676,巴彦花水上乐园,42.297112320317325,,
1000385,赤峰,内蒙古,,118.9307611921676,美林谷滑雪场,42.297112320317325,,
1000386,呼和浩特,内蒙古,,111.6603505200542,乌兰夫纪念馆,40.828318873081585,,
1000387,包头,内蒙古,,109.84623853249181,土城子遗址,40.64711942570857,,
1000388,巴彦淖尔,内蒙古,,107.42380671968002,乌拉特部落草原,40.76917990242912,,
1000389,鄂尔多斯,内蒙古,4A,109.99370625145134,九城宫旅游景区,39.81648956060153,,
1000390,赤峰,内蒙古,,118.9307611921676,红山真人CS俱乐部,42.297112320317325,,
1000391,呼伦贝尔,内蒙古,,119.76082179399947,海拉尔农业发展园区,49.201636054604336,,
1000392,赤峰,内蒙古,,118.9307611921676,百岔川岩画,42.297112320317325,,
1000393,锡林郭勒盟,内蒙古,2A,116.02733968895716,南沙梁,43.93970484232425,,
1000394,呼伦贝尔,内蒙古,2A,119.76082179399947,嘎仙洞,49.201636054604336,,
1000395,阿拉善盟,内蒙古,2A,105.69568287112703,阿拉善右旗博物馆,38.84307526440767,,
1000396,巴彦淖尔,内蒙古,,107.42380671968002,塞飞冰雪游乐园,40.76917990242912,,
1000397,通辽,内蒙古,3A,122.26036326322144,吉祥密乘大乐林寺,43.633756072995986,,
1000398,锡林郭勒盟,内蒙古,,116.02733968895716,锅盔山,43.93970484232425,,
1000399,巴彦淖尔,内蒙古,,107.42380671968002,四大股庙,40.76917990242912,,
1000400,赤峰,内蒙古,,118.9307611921676,城子山遗址,42.297112320317325,,
1000401,呼伦贝尔,内蒙古,,119.76082179399947,布里亚特部,49.201636054604336,,
1000402,乌海,内蒙古,,106.83199909716231,乌海青少年生态园,39.683177006785236,,
1000403,呼伦贝尔,内蒙古,,119.76082179399947,露西演绎,49.201636054604336,,
1000404,兴安盟,内蒙古,,122.04816651406564,宝石滑雪场,46.08375706518232,,
1000405,乌兰察布,内蒙古,2A,113.11284639067514,淖干塔拉蒙古营,41.02236294675116,,
1000406,呼伦贝尔,内蒙古,,119.76082179399947,满洲里欢乐雪城,49.201636054604336,,
1000407,鄂尔多斯,内蒙古,4A,109.99370625145134,鄂尔多斯博物馆,39.81648956060153,,
1000408,通辽,内蒙古,,122.26036326322144,可汗山景区,43.633756072995986,,
1000409,呼和浩特,内蒙古,,111.6603505200542,玉泉井,40.828318873081585,,
1000410,兴安盟,内蒙古,,122.04816651406564,杨树沟河谷森林草原旅游景区,46.08375706518232,,
1000411,赤峰,内蒙古,,118.9307611921676,将军泡子,42.297112320317325,,
1000412,呼伦贝尔,内蒙古,2A,119.76082179399947,中国达斡尔民族博物馆,49.201636054604336,,
1000413,呼和浩特,内蒙古,,111.6603505200542,内蒙古体育馆,40.828318873081585,,
1000414,巴彦淖尔,内蒙古,,107.42380671968002,洪羊洞,40.76917990242912,,
1000415,乌海,内蒙古,,106.83199909716231,一线天,39.683177006785236,,
1000416,兴安盟,内蒙古,2A,122.04816651406564,白狼峰,46.08375706518232,,
1000417,包头,内蒙古,,109.84623853249181,吉木斯泰,40.64711942570857,,
1000418,乌兰察布,内蒙古,,113.11284639067514,明徐低楼,41.02236294675116,,
1000420,呼伦贝尔,内蒙古,,119.76082179399947,太平村,49.201636054604336,,
1000421,赤峰,内蒙古,,118.9307611921676,灯笼河草原,42.297112320317325,,
1000422,阿拉善盟,内蒙古,,105.69568287112703,南寺风景区（内蒙古）,38.84307526440767,,
1000423,赤峰,内蒙古,,118.9307611921676,赤峰锡泊河冰雪王国,42.297112320317325,,
1000424,通辽,内蒙古,,122.26036326322144,欧翔玖玖庄园滑雪场,43.633756072995986,,
1000425,乌兰察布,内蒙古,,113.11284639067514,飞来石,41.02236294675116,,
1000426,呼伦贝尔,内蒙古,,119.76082179399947,二子湖,49.201636054604336,,
1000429,锡林郭勒盟,内蒙古,,116.02733968895716,半拉山景区,43.93970484232425,,
1000430,赤峰,内蒙古,,118.9307611921676,达来诺尔,42.297112320317325,,
1000431,呼伦贝尔,内蒙古,,119.76082179399947,41号界碑,49.201636054604336,,
1000432,包头,内蒙古,,109.84623853249181,冒险家欢乐园,40.64711942570857,,
1000433,鄂尔多斯,内蒙古,,109.99370625145134,蒙古源流万舟滑雪场,39.81648956060153,,
1000434,包头,内蒙古,,109.84623853249181,七彩大地景区,40.64711942570857,,
1000435,呼伦贝尔,内蒙古,,119.76082179399947,基尔果山天池,49.201636054604336,,
1000436,赤峰,内蒙古,,118.9307611921676,西拉木伦,42.297112320317325,,
1000437,鄂尔多斯,内蒙古,4A,109.99370625145134,大沙头生态文化区,39.81648956060153,,
1000438,乌兰察布,内蒙古,3A,113.11284639067514,窝阔台汗宫旅游度假中心,41.02236294675116,,
1000439,呼伦贝尔,内蒙古,4A,119.76082179399947,猛犸象公园,49.201636054604336,,
1000440,呼伦贝尔,内蒙古,,119.76082179399947,莫尔格勒河,49.201636054604336,,
1000441,呼伦贝尔,内蒙古,4A,119.76082179399947,呼和诺尔草原,49.201636054604336,,
1000443,鄂尔多斯,内蒙古,,109.99370625145134,乌仁都西,39.81648956060153,,
1000444,兴安盟,内蒙古,,122.04816651406564,驼峰岭天池,46.08375706518232,,
1000445,赤峰,内蒙古,,118.9307611921676,翁根毛都沙漠旅游度假村,42.297112320317325,,
1000446,通辽,内蒙古,2A,122.26036326322144,青龙山洼,43.633756072995986,,
1000447,鄂尔多斯,内蒙古,,109.99370625145134,《一代天骄》演绎,39.81648956060153,,
1000448,包头,内蒙古,,109.84623853249181,哈布图・哈萨尔祭奠堂,40.64711942570857,,
1000449,呼和浩特,内蒙古,,111.6603505200542,蒙古文天文图石刻,40.828318873081585,,
1000450,赤峰,内蒙古,,118.9307611921676,百兴图自然风景区,42.297112320317325,,
1000451,乌兰察布,内蒙古,3A,113.11284639067514,外事旅游接待中心,41.02236294675116,,
1000452,包头,内蒙古,,109.84623853249181,包头渡口,40.64711942570857,,
1000453,包头,内蒙古,,109.84623853249181,圣鹿园,40.64711942570857,,
1000454,阿拉善盟,内蒙古,,105.69568287112703,大同城遗址,38.84307526440767,,
1000456,呼伦贝尔,内蒙古,,119.76082179399947,莫日格勒生态景区,49.201636054604336,,
1000457,兴安盟,内蒙古,,122.04816651406564,乌苏浪子湖,46.08375706518232,,
1000458,鄂尔多斯,内蒙古,2A,109.99370625145134,柒开淖旅游区,39.81648956060153,,
1000459,包头,内蒙古,,109.84623853249181,包头乐园环球冰雪圣诞村,40.64711942570857,,
1000460,兴安盟,内蒙古,,122.04816651406564,蒙古大营,46.08375706518232,,
1000461,巴彦淖尔,内蒙古,,107.42380671968002,阴山岩画,40.76917990242912,,
1000462,呼和浩特,内蒙古,,111.6603505200542,花海情人谷,40.828318873081585,,
1000463,乌兰察布,内蒙古,,113.11284639067514,阴山古刹,41.02236294675116,,
1000464,通辽,内蒙古,1A,122.26036326322144,老乡山庄,43.633756072995986,,
1000465,赤峰,内蒙古,,118.9307611921676,黄岗梁,42.297112320317325,,
1000466,鄂尔多斯,内蒙古,3A,109.99370625145134,昭君城,39.81648956060153,,
1000467,包头,内蒙古,3A,109.84623853249181,梅力更,40.64711942570857,,
1000468,呼伦贝尔,内蒙古,,119.76082179399947,维纳河疗养旅游村,49.201636054604336,,
1000469,阿拉善盟,内蒙古,,105.69568287112703,水稍子生态旅游区,38.84307526440767,,
1000470,兴安盟,内蒙古,,122.04816651406564,玫瑰峰,46.08375706518232,,
1000471,呼伦贝尔,内蒙古,,119.76082179399947,额尔古纳湿地景区,49.201636054604336,,
1000472,呼和浩特,内蒙古,,111.6603505200542,呼和塔拉冰雪旅游文化节,40.828318873081585,,
1000475,呼伦贝尔,内蒙古,,119.76082179399947,月牙岛,49.201636054604336,,
1000477,呼伦贝尔,内蒙古,,119.76082179399947,副都统衙门,49.201636054604336,,
1000478,呼伦贝尔,内蒙古,5A,119.76082179399947,柴河景区,49.201636054604336,,
1000479,呼伦贝尔,内蒙古,,119.76082179399947,小孤山苏联红军烈士墓,49.201636054604336,,
1000480,鄂尔多斯,内蒙古,2A,109.99370625145134,库布齐神光响沙旅游区,39.81648956060153,,
1000482,鄂尔多斯,内蒙古,,109.99370625145134,伊和温泉,39.81648956060153,,
1000483,鄂尔多斯,内蒙古,,109.99370625145134,大秦直道文化旅游景区,39.81648956060153,,
1000484,呼和浩特,内蒙古,,111.6603505200542,金刚座舍利宝塔,40.828318873081585,,
1000485,锡林郭勒盟,内蒙古,,116.02733968895716,平顶山火山群,43.93970484232425,,
1000486,阿拉善盟,内蒙古,,105.69568287112703,海森楚鲁怪石林,38.84307526440767,,
1000488,赤峰,内蒙古,,118.9307611921676,巴林沙漠主题公园,42.297112320317325,,
1000489,呼伦贝尔,内蒙古,,119.76082179399947,《天边》民族歌舞剧,49.201636054604336,,
1000490,乌海,内蒙古,,106.83199909716231,蒙根花温泉水世界,39.683177006785236,,
1000491,赤峰,内蒙古,,118.9307611921676,大黑山,42.297112320317325,,
1000492,包头,内蒙古,,109.84623853249181,昭君岛,40.64711942570857,,
1000493,呼伦贝尔,内蒙古,,119.76082179399947,撒佰诺马场,49.201636054604336,,
1000494,呼和浩特,内蒙古,,111.6603505200542,呼和浩特沐蓝爵汗蒸养生馆,40.828318873081585,,
1000495,鄂尔多斯,内蒙古,,109.99370625145134,未来世界儿童体验馆,39.81648956060153,,
1000496,赤峰,内蒙古,2A,118.9307611921676,南山生态园,42.297112320317325,,
1000498,呼和浩特,内蒙古,,111.6603505200542,蒙羊,40.828318873081585,,
1000499,呼伦贝尔,内蒙古,2A,119.76082179399947,海拉尔要塞,49.201636054604336,,
1000500,包头,内蒙古,,109.84623853249181,大雁滩景区,40.64711942570857,,
1000501,兴安盟,内蒙古,,122.04816651406564,哈拉哈水上漂游,46.08375706518232,,
1000502,乌海,内蒙古,2A,106.83199909716231,乌海煤炭博物馆,39.683177006785236,,
1000503,包头,内蒙古,,109.84623853249181,秦长城,40.64711942570857,,
1000504,包头,内蒙古,,109.84623853249181,哈撒儿旅游景区,40.64711942570857,,
1000505,呼和浩特,内蒙古,,111.6603505200542,蒙古文化风情园,40.828318873081585,,
1000507,锡林郭勒盟,内蒙古,,116.02733968895716,二连浩特市门,43.93970484232425,,
1000509,呼和浩特,内蒙古,,111.6603505200542,锡林公园冰雪王国,40.828318873081585,,
1000510,呼和浩特,内蒙古,3A,111.6603505200542,清公主府,40.828318873081585,,
1000513,巴彦淖尔,内蒙古,,107.42380671968002,五原誓师台,40.76917990242912,,
1000514,锡林郭勒盟,内蒙古,2A,116.02733968895716,查干朝鲁图珠洒勒旅游度假村,43.93970484232425,,
1000515,赤峰,内蒙古,2A,118.9307611921676,布日敦沙漠,42.297112320317325,,
1000516,鄂尔多斯,内蒙古,,109.99370625145134,达尔扈特牧家乐,39.81648956060153,,
1000518,鄂尔多斯,内蒙古,,109.99370625145134,塞外农耕文化体验园,39.81648956060153,,
1000520,阿拉善盟,内蒙古,,105.69568287112703,巴丹湖,38.84307526440767,,
1000521,鄂尔多斯,内蒙古,,109.99370625145134,鄂尔多斯遗鸥自然保护区,39.81648956060153,,
1000522,呼伦贝尔,内蒙古,2A,119.76082179399947,五泉山自然保护区,49.201636054604336,,
1000523,包头,内蒙古,,109.84623853249181,内蒙古包头亚欧体育度假村高尔夫球会,40.64711942570857,,
1000524,包头,内蒙古,,109.84623853249181,包头健锡滑雪场,40.64711942570857,,
1000525,阿拉善盟,内蒙古,,105.69568287112703,腾格里沙漠,38.84307526440767,,
1000528,呼和浩特,内蒙古,,111.6603505200542,圣水梁,40.828318873081585,,
1000529,呼伦贝尔,内蒙古,2A,119.76082179399947,巴尔虎博物馆,49.201636054604336,,
1000530,通辽,内蒙古,,122.26036326322144,莫力庙,43.633756072995986,,
1000531,鄂尔多斯,内蒙古,4A,109.99370625145134,鄂尔多斯野生动物园（海洋馆）,39.81648956060153,,
1000532,呼伦贝尔,内蒙古,,119.76082179399947,熊谷,49.201636054604336,,
1000533,兴安盟,内蒙古,,122.04816651406564,神山,46.08375706518232,,
1000535,锡林郭勒盟,内蒙古,,116.02733968895716,立马峰,43.93970484232425,,
1000536,乌海,内蒙古,3A,106.83199909716231,金沙湾,39.683177006785236,,
1000537,呼和浩特,内蒙古,,111.6603505200542,托县黄河旅游区,40.828318873081585,,
1000538,呼伦贝尔,内蒙古,,119.76082179399947,俄罗斯歌舞盛宴,49.201636054604336,,
1000539,乌海,内蒙古,,106.83199909716231,快乐宝贝儿童乐园淘气堡,39.683177006785236,,
1000540,锡林郭勒盟,内蒙古,,116.02733968895716,白音查干,43.93970484232425,,
1000541,赤峰,内蒙古,3A,118.9307611921676,巴林左旗召庙,42.297112320317325,,
1000542,通辽,内蒙古,,122.26036326322144,辽河公园冰雪王国,43.633756072995986,,
1000543,呼和浩特,内蒙古,,111.6603505200542,敕勒川草原文化旅游区,40.828318873081585,,
1000544,锡林郭勒盟,内蒙古,,116.02733968895716,内蒙多伦县清水湾温泉汗蒸酒店,43.93970484232425,,
1000545,赤峰,内蒙古,,118.9307611921676,宁城县平煤疗养院,42.297112320317325,,
1000546,通辽,内蒙古,3A,122.26036326322144,牵手草原度假村,43.633756072995986,,
1000547,呼和浩特,内蒙古,,111.6603505200542,伊斯兰风情街,40.828318873081585,,
1000548,鄂尔多斯,内蒙古,3A,109.99370625145134,巴图湾电厂,39.81648956060153,,
1000549,呼伦贝尔,内蒙古,3A,119.76082179399947,呼伦贝尔古城,49.201636054604336,,
1000550,包头,内蒙古,,109.84623853249181,百灵庙,40.64711942570857,,
1000551,包头,内蒙古,,109.84623853249181,白云鄂博草原,40.64711942570857,,
1000552,呼和浩特,内蒙古,,111.6603505200542,万家寨水库,40.828318873081585,,
1000553,赤峰,内蒙古,,118.9307611921676,应昌路故城遗址,42.297112320317325,,
1000554,阿拉善盟,内蒙古,4A,105.69568287112703,广宗寺,38.84307526440767,,
1000555,鄂尔多斯,内蒙古,4A,109.99370625145134,察罕苏力德游牧生态旅游区,39.81648956060153,,
1000556,锡林郭勒盟,内蒙古,,116.02733968895716,乌拉盖乞颜部落度假村,43.93970484232425,,
1000557,包头,内蒙古,3A,109.84623853249181,妙法寺,40.64711942570857,,
1000559,呼伦贝尔,内蒙古,,119.76082179399947,和平之门广场,49.201636054604336,,
1000560,通辽,内蒙古,,122.26036326322144,科尔沁潮海沙漠景区,43.633756072995986,,
1000561,呼伦贝尔,内蒙古,,119.76082179399947,扎拉敖包,49.201636054604336,,
1000562,呼和浩特,内蒙古,,111.6603505200542,蒙古庙,40.828318873081585,,
1000563,兴安盟,内蒙古,,122.04816651406564,七仙湖草原,46.08375706518232,,
1000564,锡林郭勒盟,内蒙古,2A,116.02733968895716,苏尼特乌兰伊德饮食风情园,43.93970484232425,,
1000565,鄂尔多斯,内蒙古,,109.99370625145134,万通水世界,39.81648956060153,,
1000566,阿拉善盟,内蒙古,,105.69568287112703,黑城遗址,38.84307526440767,,
1000567,呼伦贝尔,内蒙古,,119.76082179399947,伊敏河湿地,49.201636054604336,,
1000568,阿拉善盟,内蒙古,,105.69568287112703,额济纳神树,38.84307526440767,,
1000570,呼和浩特,内蒙古,,111.6603505200542,内蒙古麦森薰衣草庄园,40.828318873081585,,
1000571,乌兰察布,内蒙古,,113.11284639067514,红石崖寺旅游区,41.02236294675116,,
1000572,锡林郭勒盟,内蒙古,,116.02733968895716,乌拉盖九曲湾,43.93970484232425,,
1000573,锡林郭勒盟,内蒙古,2A,116.02733968895716,葛根敖包草原旅游度假村,43.93970484232425,,
1000574,呼伦贝尔,内蒙古,,119.76082179399947,扎赉诺尔博物馆,49.201636054604336,,
1000575,赤峰,内蒙古,,118.9307611921676,青山国家地质公园,42.297112320317325,,
1000576,巴彦淖尔,内蒙古,,107.42380671968002,玛瑙湖,40.76917990242912,,
1000577,呼和浩特,内蒙古,,111.6603505200542,和林南山公园,40.828318873081585,,
1000578,赤峰,内蒙古,3A,118.9307611921676,曼陀山庄,42.297112320317325,,
1000579,锡林郭勒盟,内蒙古,,116.02733968895716,别力古台扎桑,43.93970484232425,,
1000580,呼和浩特,内蒙古,,111.6603505200542,康熙平定噶尔丹纪功碑,40.828318873081585,,
1000581,赤峰,内蒙古,4A,118.9307611921676,玉龙沙湖,42.297112320317325,,
1000582,鄂尔多斯,内蒙古,,109.99370625145134,阿尔寨石窟,39.81648956060153,,
1000583,乌兰察布,内蒙古,2A,113.11284639067514,巴彦塔拉旅游城,41.02236294675116,,
1000584,呼伦贝尔,内蒙古,,119.76082179399947,龙岩览胜,49.201636054604336,,
1000585,锡林郭勒盟,内蒙古,,116.02733968895716,太仆寺旗玛拉盖庙,43.93970484232425,,
1000587,呼和浩特,内蒙古,,111.6603505200542,蒙丰锦绣园,40.828318873081585,,
1000588,呼和浩特,内蒙古,,111.6603505200542,呼和浩特体育场,40.828318873081585,,
1000589,呼伦贝尔,内蒙古,,119.76082179399947,跨国湿地,49.201636054604336,,
1000590,乌兰察布,内蒙古,,113.11284639067514,平地泉水世界滑雪场,41.02236294675116,,
1000591,呼伦贝尔,内蒙古,,119.76082179399947,成吉思汗拴马桩,49.201636054604336,,
1000592,呼伦贝尔,内蒙古,3A,119.76082179399947,扎兰屯秀水山庄,49.201636054604336,,
1000593,兴安盟,内蒙古,,122.04816651406564,科尔沁珍禽自然保护区,46.08375706518232,,
1000595,呼伦贝尔,内蒙古,4A,119.76082179399947,鄂伦春布苏里景区,49.201636054604336,,
1000596,呼和浩特,内蒙古,,111.6603505200542,内蒙古大青山太伟高尔夫俱乐部,40.828318873081585,,
1000597,锡林郭勒盟,内蒙古,,116.02733968895716,锡林郭勒吉祥草原旅游区,43.93970484232425,,
1000598,呼和浩特,内蒙古,4A,111.6603505200542,昭君墓,40.828318873081585,,
1000599,通辽,内蒙古,4A,122.26036326322144,库伦三大寺旅游景区,43.633756072995986,,
1000600,赤峰,内蒙古,,118.9307611921676,克什克腾国家地质公园,42.297112320317325,,
1000601,乌海,内蒙古,,106.83199909716231,黄河景观,39.683177006785236,,
1000602,呼伦贝尔,内蒙古,,119.76082179399947,黑山头城址,49.201636054604336,,
1000603,包头,内蒙古,,109.84623853249181,君昂童军乐园（包百店）,40.64711942570857,,
1000606,兴安盟,内蒙古,2A,122.04816651406564,明星水库,46.08375706518232,,
1000607,呼和浩特,内蒙古,,111.6603505200542,小召,40.828318873081585,,
1000608,呼伦贝尔,内蒙古,,119.76082179399947,呼伦贝尔草甸草原,49.201636054604336,,
1000610,包头,内蒙古,,109.84623853249181,昆都仑水库,40.64711942570857,,
1000611,赤峰,内蒙古,,118.9307611921676,大井古铜矿遗址,42.297112320317325,,
1000613,呼伦贝尔,内蒙古,1A,119.76082179399947,根河桥度假村,49.201636054604336,,
1000615,包头,内蒙古,,109.84623853249181,春坤山,40.64711942570857,,
1000616,呼伦贝尔,内蒙古,3A,119.76082179399947,巴彦呼硕草原,49.201636054604336,,
1000617,鄂尔多斯,内蒙古,2A,109.99370625145134,苏里格庙,39.81648956060153,,
1000618,乌兰察布,内蒙古,3A,113.11284639067514,辉腾锡勒草原明珠接待中心,41.02236294675116,,
1000619,阿拉善盟,内蒙古,,105.69568287112703,甲渠候官遗址,38.84307526440767,,
1000620,通辽,内蒙古,3A,122.26036326322144,奈曼王府,43.633756072995986,,
1000621,呼和浩特,内蒙古,,111.6603505200542,呼和浩特河灯节,40.828318873081585,,
1000622,呼和浩特,内蒙古,,111.6603505200542,香岛农家草莓采摘园,40.828318873081585,,
1000623,赤峰,内蒙古,2A,118.9307611921676,荟福寺,42.297112320317325,,
1000624,呼和浩特,内蒙古,,111.6603505200542,碧海云天（烟厂店）,40.828318873081585,,
1000625,兴安盟,内蒙古,,122.04816651406564,葛根庙,46.08375706518232,,
1000627,锡林郭勒盟,内蒙古,2A,116.02733968895716,浩济特庙,43.93970484232425,,
1000629,鄂尔多斯,内蒙古,,109.99370625145134,东海国际温泉,39.81648956060153,,
1000630,乌海,内蒙古,,106.83199909716231,地质奇观,39.683177006785236,,
1000631,呼和浩特,内蒙古,,111.6603505200542,天威儿童游乐园,40.828318873081585,,
1000633,呼和浩特,内蒙古,,111.6603505200542,碧海云天大浴场,40.828318873081585,,
1000634,呼和浩特,内蒙古,,111.6603505200542,万科采摘园,40.828318873081585,,
1000635,呼伦贝尔,内蒙古,,119.76082179399947,红色国际秘密交通线遗迹,49.201636054604336,,
1000636,兴安盟,内蒙古,,122.04816651406564,察尔森国家森林公园,46.08375706518232,,
1000637,乌兰察布,内蒙古,,113.11284639067514,薛刚山,41.02236294675116,,
1000638,兴安盟,内蒙古,2A,122.04816651406564,多兰湖公园,46.08375706518232,,
1000639,通辽,内蒙古,2A,122.26036326322144,静湖度假村,43.633756072995986,,
1000640,兴安盟,内蒙古,,122.04816651406564,好森沟国家森林公园,46.08375706518232,,
1000641,兴安盟,内蒙古,,122.04816651406564,石塘林,46.08375706518232,,
1000642,通辽,内蒙古,,122.26036326322144,塔敏查干沙漠,43.633756072995986,,
1000643,包头,内蒙古,,109.84623853249181,宝贝家园儿童成长基地,40.64711942570857,,
1000644,乌海,内蒙古,,106.83199909716231,乌海湖旅游景区,39.683177006785236,,
1000645,兴安盟,内蒙古,,122.04816651406564,图牧吉,46.08375706518232,,
1000646,阿拉善盟,内蒙古,,105.69568287112703,英雄传说,38.84307526440767,,
1000647,赤峰,内蒙古,,118.9307611921676,赤峰金山海贝尔七采风车节,42.297112320317325,,
1000648,赤峰,内蒙古,,118.9307611921676,达里湖北岸,42.297112320317325,,
1000649,赤峰,内蒙古,,118.9307611921676,鲤鱼泡子,42.297112320317325,,
1000650,呼伦贝尔,内蒙古,,119.76082179399947,蒙古之源・蒙兀室韦文化旅游景区,49.201636054604336,,
1000652,呼伦贝尔,内蒙古,3A,119.76082179399947,凤凰山庄,49.201636054604336,,
1000653,锡林郭勒盟,内蒙古,,116.02733968895716,大型历史实景剧《天骄传奇》,43.93970484232425,,
1000655,包头,内蒙古,,109.84623853249181,汉代麻池古城遗址,40.64711942570857,,
1000656,赤峰,内蒙古,,118.9307611921676,黑里河漂流,42.297112320317325,,
1000657,乌兰察布,内蒙古,,113.11284639067514,宝黛石,41.02236294675116,,
1000658,阿拉善盟,内蒙古,,105.69568287112703,五座塔,38.84307526440767,,
1000659,锡林郭勒盟,内蒙古,,116.02733968895716,忽必烈夏宫,43.93970484232425,,
1000660,阿拉善盟,内蒙古,,105.69568287112703,阿拉善异星营地音乐会,38.84307526440767,,
1000661,包头,内蒙古,,109.84623853249181,小肥羊食品工业旅游区,40.64711942570857,,
1000662,鄂尔多斯,内蒙古,,109.99370625145134,鄂尔多斯草莓园,39.81648956060153,,
1000663,呼伦贝尔,内蒙古,,119.76082179399947,鄂伦春民族乡,49.201636054604336,,
1000664,呼和浩特,内蒙古,,111.6603505200542,赵长城,40.828318873081585,,
1000665,呼伦贝尔,内蒙古,,119.76082179399947,额尔古纳界河,49.201636054604336,,
1000666,鄂尔多斯,内蒙古,3A,109.99370625145134,黄河三盛公国家水利风景区,39.81648956060153,,
1000667,锡林郭勒盟,内蒙古,,116.02733968895716,洪格尔岩画群,43.93970484232425,,
1000668,兴安盟,内蒙古,,122.04816651406564,哈拉哈河,46.08375706518232,,
1000669,通辽,内蒙古,3A,122.26036326322144,古榆园旅游区,43.633756072995986,,
1000670,兴安盟,内蒙古,,122.04816651406564,三潭峡,46.08375706518232,,
1000671,赤峰,内蒙古,,118.9307611921676,道须沟,42.297112320317325,,
1000672,乌兰察布,内蒙古,,113.11284639067514,平安洞,41.02236294675116,,
1000673,通辽,内蒙古,3A,122.26036326322144,辉特淖尔草原旅游区,43.633756072995986,,
1000676,阿拉善盟,内蒙古,,105.69568287112703,额日布盖峡谷,38.84307526440767,,
1000677,通辽,内蒙古,2A,122.26036326322144,怪山,43.633756072995986,,
1000678,呼伦贝尔,内蒙古,,119.76082179399947,辉河湿地草原旅游度假风景区,49.201636054604336,,
1000679,呼和浩特,内蒙古,,111.6603505200542,山东甜草莓,40.828318873081585,,
1000680,赤峰,内蒙古,2A,118.9307611921676,赤峰市植物园,42.297112320317325,,
1000681,鄂尔多斯,内蒙古,,109.99370625145134,神东煤海,39.81648956060153,,
1000682,呼和浩特,内蒙古,,111.6603505200542,大青山太伟滑雪场,40.828318873081585,,
1000683,巴彦淖尔,内蒙古,,107.42380671968002,黄河河套文化旅游区湿地公园,40.76917990242912,,
1000684,通辽,内蒙古,,122.26036326322144,金代界壕,43.633756072995986,,
1000685,包头,内蒙古,,109.84623853249181,百灵庙抗日纪念碑,40.64711942570857,,
1000686,鄂尔多斯,内蒙古,,109.99370625145134,蒙古历史博物馆,39.81648956060153,,
1000687,呼伦贝尔,内蒙古,,119.76082179399947,美人湖,49.201636054604336,,
1000688,赤峰,内蒙古,,118.9307611921676,宝山罕苏木墓群,42.297112320317325,,
1000689,呼伦贝尔,内蒙古,,119.76082179399947,秀水,49.201636054604336,,
1000690,赤峰,内蒙古,2A,118.9307611921676,辽上京博物馆,42.297112320317325,,
1000691,赤峰,内蒙古,,118.9307611921676,敖汉温泉城,42.297112320317325,,
1000692,阿拉善盟,内蒙古,4A,105.69568287112703,阿拉善通湖草原,38.84307526440767,,
1000693,呼和浩特,内蒙古,,111.6603505200542,菲彼西餐厅,40.828318873081585,,
1000694,鄂尔多斯,内蒙古,4A,109.99370625145134,释尼召沙漠绿海乐园,39.81648956060153,,
1000695,乌兰察布,内蒙古,2A,113.11284639067514,淖干诺尔草原,41.02236294675116,,
1000696,包头,内蒙古,,109.84623853249181,包头九峰山,40.64711942570857,,
1000697,通辽,内蒙古,,122.26036326322144,奈曼沙漠,43.633756072995986,,
1000698,赤峰,内蒙古,,118.9307611921676,罕山,42.297112320317325,,
1000699,呼伦贝尔,内蒙古,2A,119.76082179399947,室韦俄罗斯民族乡,49.201636054604336,,
1000700,赤峰,内蒙古,,118.9307611921676,西拉沐沦大峡谷园区,42.297112320317325,,
1000701,巴彦淖尔,内蒙古,2A,107.42380671968002,阿贵庙,40.76917990242912,,
1000702,乌兰察布,内蒙古,,113.11284639067514,庙子沟遗址,41.02236294675116,,
1000704,赤峰,内蒙古,,118.9307611921676,南山真人CS俱乐部,42.297112320317325,,
1000705,鄂尔多斯,内蒙古,2A,109.99370625145134,吉祥福慧寺,39.81648956060153,,
1000706,乌海,内蒙古,3A,106.83199909716231,甘德尔山生态旅游景区,39.683177006785236,,
1000707,赤峰,内蒙古,,118.9307611921676,耶律羽之墓群,42.297112320317325,,
1000708,乌海,内蒙古,2A,106.83199909716231,乌海植物园,39.683177006785236,,
1000709,呼和浩特,内蒙古,,111.6603505200542,小奶花,40.828318873081585,,
1000710,呼伦贝尔,内蒙古,4A,119.76082179399947,呼和诺尔湖,49.201636054604336,,
1000711,通辽,内蒙古,,122.26036326322144,兴源寺,43.633756072995986,,
1000712,呼伦贝尔,内蒙古,2A,119.76082179399947,达赉湖,49.201636054604336,,
1000713,赤峰,内蒙古,,118.9307611921676,白音乌拉游牧文化区,42.297112320317325,,
1000714,阿拉善盟,内蒙古,,105.69568287112703,乌兰布和沙漠,38.84307526440767,,
1000715,包头,内蒙古,3A,109.84623853249181,包头新世纪青年生态园,40.64711942570857,,
1000716,呼和浩特,内蒙古,,111.6603505200542,港湾汗蒸领浴,40.828318873081585,,
1000717,阿拉善盟,内蒙古,,105.69568287112703,额济纳旗老人湖胡杨牧场,38.84307526440767,,
1000718,呼和浩特,内蒙古,,111.6603505200542,热带风暴水上乐园,40.828318873081585,,
1000719,兴安盟,内蒙古,,122.04816651406564,乌兰毛都草原,46.08375706518232,,
1000721,阿拉善盟,内蒙古,,105.69568287112703,腾格里沙漠天鹅湖,38.84307526440767,,
1000722,呼和浩特,内蒙古,,111.6603505200542,魅力新天地室内儿童水上乐园,40.828318873081585,,
1000723,鄂尔多斯,内蒙古,,109.99370625145134,准域水上乐园,39.81648956060153,,
1000725,锡林郭勒盟,内蒙古,,116.02733968895716,夏牧场乃林河,43.93970484232425,,
1000726,赤峰,内蒙古,,118.9307611921676,水善汇(赤峰店）,42.297112320317325,,
1000727,呼伦贝尔,内蒙古,,119.76082179399947,老鹰嘴,49.201636054604336,,
1000728,呼和浩特,内蒙古,3A,111.6603505200542,五塔寺,40.828318873081585,,
1000729,通辽,内蒙古,,122.26036326322144,草甘沙漠旅游区,43.633756072995986,,
1000730,呼伦贝尔,内蒙古,,119.76082179399947,中俄互市贸易旅游区,49.201636054604336,,
1000732,鄂尔多斯,内蒙古,,109.99370625145134,鄂尔多斯博源国际高尔夫俱乐部,39.81648956060153,,
1000733,包头,内蒙古,4A,109.84623853249181,北方兵器工业城,40.64711942570857,,
1000736,兴安盟,内蒙古,,122.04816651406564,阿尔山滑雪场,46.08375706518232,,
1000737,呼和浩特,内蒙古,,111.6603505200542,《国色天香-大美首府》洛阳牡丹花节,40.828318873081585,,
1000738,赤峰,内蒙古,,118.9307611921676,乌兰宝通古战场,42.297112320317325,,
1000739,包头,内蒙古,,109.84623853249181,成吉思汗草原生态园,40.64711942570857,,
1000741,赤峰,内蒙古,,118.9307611921676,江庆州城遗址,42.297112320317325,,
1000742,赤峰,内蒙古,,118.9307611921676,克什克腾温泉,42.297112320317325,,
1000743,鄂尔多斯,内蒙古,,109.99370625145134,九城宫滑雪场,39.81648956060153,,
1000744,呼伦贝尔,内蒙古,,119.76082179399947,大觉禅寺,49.201636054604336,,
1000746,呼伦贝尔,内蒙古,2A,119.76082179399947,鹤祥园度假村,49.201636054604336,,
1000747,赤峰,内蒙古,,118.9307611921676,玫瑰庄园滑雪场,42.297112320317325,,
1000749,包头,内蒙古,,109.84623853249181,黄河国家湿地公园,40.64711942570857,,
1000750,锡林郭勒盟,内蒙古,3A,116.02733968895716,皇家御马苑,43.93970484232425,,
1000752,鄂尔多斯,内蒙古,,109.99370625145134,王爱召,39.81648956060153,,
1000754,通辽,内蒙古,,122.26036326322144,阿日昆都冷草原,43.633756072995986,,
1000755,赤峰,内蒙古,,118.9307611921676,后召庙辽石窟寺,42.297112320317325,,
1000756,兴安盟,内蒙古,,122.04816651406564,阿尔山市银江沟温泉会馆,46.08375706518232,,
1000757,赤峰,内蒙古,,118.9307611921676,龙泉寺,42.297112320317325,,
1000758,锡林郭勒盟,内蒙古,2A,116.02733968895716,锡日塔拉草原旅游度假村,43.93970484232425,,
1000759,包头,内蒙古,,109.84623853249181,迎宾公园,40.64711942570857,,
1000760,乌兰察布,内蒙古,,113.11284639067514,永兴湖,41.02236294675116,,
1000761,阿拉善盟,内蒙古,,105.69568287112703,绿城遗址,38.84307526440767,,
1000762,包头,内蒙古,,109.84623853249181,包头博物馆,40.64711942570857,,
1000763,通辽,内蒙古,,122.26036326322144,陈国公主墓志铭,43.633756072995986,,
1000764,赤峰,内蒙古,,118.9307611921676,龙口漂流,42.297112320317325,,
1000765,呼伦贝尔,内蒙古,,119.76082179399947,俄罗斯艺术博物馆,49.201636054604336,,
1000766,呼和浩特,内蒙古,,111.6603505200542,创智牌楼馆,40.828318873081585,,
1000767,阿拉善盟,内蒙古,,105.69568287112703,肩水金关遗址,38.84307526440767,,
1000768,兴安盟,内蒙古,,122.04816651406564,真寂之寺,46.08375706518232,,
1000769,呼伦贝尔,内蒙古,,119.76082179399947,颐和温泉酒店温泉,49.201636054604336,,
1000770,呼和浩特,内蒙古,,111.6603505200542,贝贝乐园（摩尔城店）,40.828318873081585,,
1000771,赤峰,内蒙古,3A,118.9307611921676,紫蒙湖旅游风景区,42.297112320317325,,
1000772,呼伦贝尔,内蒙古,2A,119.76082179399947,晨光生态园,49.201636054604336,,
1000773,呼和浩特,内蒙古,,111.6603505200542,“WEM西部国际电音节”全国巡演呼市站,40.828318873081585,,
1000774,赤峰,内蒙古,,118.9307611921676,桦木沟国家森林公园,42.297112320317325,,
1000775,呼伦贝尔,内蒙古,2A,119.76082179399947,鄂伦春博物馆,49.201636054604336,,
1000776,呼和浩特,内蒙古,,111.6603505200542,乐享小镇,40.828318873081585,,
1000777,赤峰,内蒙古,,118.9307611921676,辽祖州城遗址,42.297112320317325,,
1000778,锡林郭勒盟,内蒙古,,116.02733968895716,伊林驿站博物馆,43.93970484232425,,
1000779,鄂尔多斯,内蒙古,4A,109.99370625145134,鄂尔多斯文化旅游村,39.81648956060153,,
1000780,通辽,内蒙古,2A,122.26036326322144,东湖,43.633756072995986,,
1000781,赤峰,内蒙古,,118.9307611921676,乌兰布统草原,42.297112320317325,,
1000782,呼和浩特,内蒙古,,111.6603505200542,唐单于都护府城遗址,40.828318873081585,,
1000783,赤峰,内蒙古,2A,118.9307611921676,巴林蒙古部落,42.297112320317325,,
1000784,乌兰察布,内蒙古,,113.11284639067514,勇者滑世界,41.02236294675116,,
1000785,包头,内蒙古,,109.84623853249181,朝鲁呼牧民家,40.64711942570857,,
1000787,呼伦贝尔,内蒙古,2A,119.76082179399947,喇嘛山,49.201636054604336,,
1000788,赤峰,内蒙古,1A,118.9307611921676,勃隆克沙漠,42.297112320317325,,
1000789,阿拉善盟,内蒙古,,105.69568287112703,《阿拉腾陶来》,38.84307526440767,,
1000790,兴安盟,内蒙古,,122.04816651406564,公主陵古城遗址,46.08375706518232,,
1000791,呼和浩特,内蒙古,,111.6603505200542,哈达门国家森林公园,40.828318873081585,,
1000792,呼伦贝尔,内蒙古,,119.76082179399947,弘吉剌蒙古大营,49.201636054604336,,
1000793,锡林郭勒盟,内蒙古,,116.02733968895716,汇宗寺,43.93970484232425,,
1000794,呼伦贝尔,内蒙古,5A,119.76082179399947,中俄边境旅游区,49.201636054604336,,
1000795,呼伦贝尔,内蒙古,,119.76082179399947,仙人洞旅游度假山庄,49.201636054604336,,
1000796,呼伦贝尔,内蒙古,,119.76082179399947,红军烈士公园,49.201636054604336,,
1000797,包头,内蒙古,4A,109.84623853249181,五当召,40.64711942570857,,
1000798,兴安盟,内蒙古,3A,122.04816651406564,兴安蒙古包旅游村,46.08375706518232,,
1000799,通辽,内蒙古,2A,122.26036326322144,阿古拉草原,43.633756072995986,,
1000800,呼伦贝尔,内蒙古,,119.76082179399947,套娃景区西餐演绎,49.201636054604336,,
1000801,呼伦贝尔,内蒙古,2A,119.76082179399947,抗联英雄园,49.201636054604336,,
1000802,包头,内蒙古,,109.84623853249181,阿善遗址,40.64711942570857,,
1000804,呼伦贝尔,内蒙古,2A,119.76082179399947,阿里河国家森林公园,49.201636054604336,,
1000805,呼伦贝尔,内蒙古,,119.76082179399947,满洲里套娃景区大马戏,49.201636054604336,,
1000807,赤峰,内蒙古,,118.9307611921676,巴拉奇如德庙,42.297112320317325,,
1000808,锡林郭勒盟,内蒙古,4A,116.02733968895716,白垩纪恐龙国家地质公园,43.93970484232425,,
1000809,鄂尔多斯,内蒙古,2A,109.99370625145134,绿洲宾馆旅游区,39.81648956060153,,
1000810,乌兰察布,内蒙古,,113.11284639067514,阴山,41.02236294675116,,
1000811,呼伦贝尔,内蒙古,2A,119.76082179399947,呼伦湖金海岸,49.201636054604336,,
1000812,兴安盟,内蒙古,,122.04816651406564,杨树沟地下瀑布群,46.08375706518232,,
1000813,兴安盟,内蒙古,,122.04816651406564,京都京军浴,46.08375706518232,,
1000814,乌海,内蒙古,2A,106.83199909716231,乌海科技馆,39.683177006785236,,
1000816,兴安盟,内蒙古,,122.04816651406564,大型实景剧《成吉思汗的黑c》,46.08375706518232,,
1000817,呼和浩特,内蒙古,,111.6603505200542,碧海云天（幸福小区店）,40.828318873081585,,
1000818,巴彦淖尔,内蒙古,,107.42380671968002,慈云寺,40.76917990242912,,
1000819,鄂尔多斯,内蒙古,2A,109.99370625145134,夜鸣沙旅游区,39.81648956060153,,
1000821,赤峰,内蒙古,,118.9307611921676,公主湖,42.297112320317325,,
1000822,赤峰,内蒙古,,118.9307611921676,第四纪冰川遗址,42.297112320317325,,
1000823,呼伦贝尔,内蒙古,,119.76082179399947,呼伦贝尔一代天骄蒙古部落,49.201636054604336,,
1000824,阿拉善盟,内蒙古,,105.69568287112703,弱水金沙湾,38.84307526440767,,
1000825,锡林郭勒盟,内蒙古,,116.02733968895716,多伦草原,43.93970484232425,,
1000826,呼和浩特,内蒙古,,111.6603505200542,碧海云天(中山西路店）,40.828318873081585,,
1000827,鄂尔多斯,内蒙古,,109.99370625145134,阿勒腾浩特牧家乐,39.81648956060153,,
1000828,乌海,内蒙古,3A,106.83199909716231,汉森庄园,39.683177006785236,,
1000829,呼和浩特,内蒙古,,111.6603505200542,乐享仓储式母婴馆（乐享母婴盘古店）,40.828318873081585,,
1000830,呼和浩特,内蒙古,,111.6603505200542,黑大门国家森林公园,40.828318873081585,,
1000831,鄂尔多斯,内蒙古,,109.99370625145134,乌兰木伦湖,39.81648956060153,,
1000832,呼和浩特,内蒙古,,111.6603505200542,清・固伦恪靖公主府,40.828318873081585,,
1000833,呼伦贝尔,内蒙古,,119.76082179399947,中俄蒙国际冰雪乐园,49.201636054604336,,
1000834,阿拉善盟,内蒙古,,105.69568287112703,大漠胡杨林旅游区,38.84307526440767,,
1000835,包头,内蒙古,,109.84623853249181,神鹰宏浩冰雪世界,40.64711942570857,,
1000836,阿拉善盟,内蒙古,,105.69568287112703,浑善达克沙地,38.84307526440767,,
1000837,赤峰,内蒙古,,118.9307611921676,释迦佛舍利塔,42.297112320317325,,
1000838,锡林郭勒盟,内蒙古,2A,116.02733968895716,阿拉腾艾里度假村,43.93970484232425,,
1000839,兴安盟,内蒙古,,122.04816651406564,金界壕,46.08375706518232,,
1000840,呼伦贝尔,内蒙古,,119.76082179399947,三河马博物馆,49.201636054604336,,
1000841,包头,内蒙古,,109.84623853249181,大拇指游乐园（华联店）,40.64711942570857,,
1000842,通辽,内蒙古,,122.26036326322144,新镇柏盛园度假村,43.633756072995986,,
1000843,巴彦淖尔,内蒙古,,107.42380671968002,乌拉特部落山泉水世界,40.76917990242912,,
1000844,呼和浩特,内蒙古,,111.6603505200542,敕勒川人家旅游度假村,40.828318873081585,,
1000845,锡林郭勒盟,内蒙古,,116.02733968895716,平顶山,43.93970484232425,,
1000846,呼伦贝尔,内蒙古,2A,119.76082179399947,鄂温克博物馆,49.201636054604336,,
1000847,赤峰,内蒙古,,118.9307611921676,达里湖南岸,42.297112320317325,,
1000848,锡林郭勒盟,内蒙古,,116.02733968895716,元上都博物馆,43.93970484232425,,
1000849,乌兰察布,内蒙古,,113.11284639067514,察尔湖生态旅游度假区,41.02236294675116,,
1000851,赤峰,内蒙古,,118.9307611921676,乌兰布统草原宇航马场,42.297112320317325,,
1000852,通辽,内蒙古,3A,122.26036326322144,麦新烈士纪念馆,43.633756072995986,,
1000853,锡林郭勒盟,内蒙古,4A,116.02733968895716,蒙古汗城文化旅游区,43.93970484232425,,
1000854,兴安盟,内蒙古,,122.04816651406564,金江沟温泉,46.08375706518232,,
1000855,呼伦贝尔,内蒙古,,119.76082179399947,《敖鲁古雅》舞台剧,49.201636054604336,,
1000856,巴彦淖尔,内蒙古,,107.42380671968002,圣牧,40.76917990242912,,
1000857,巴彦淖尔,内蒙古,,107.42380671968002,碧海云天（临河店）,40.76917990242912,,
1000858,乌兰察布,内蒙古,2A,113.11284639067514,岱海旅游区,41.02236294675116,,
1000859,包头,内蒙古,,109.84623853249181,乃春庙,40.64711942570857,,
1000860,呼伦贝尔,内蒙古,3A,119.76082179399947,绰源生态旅游区,49.201636054604336,,
1000862,鄂尔多斯,内蒙古,,109.99370625145134,济支州岛韩蒸温泉时代,39.81648956060153,,
1000863,赤峰,内蒙古,,118.9307611921676,西拉沐沦河,42.297112320317325,,
1000864,呼伦贝尔,内蒙古,,119.76082179399947,黑山头老镇云飞马场,49.201636054604336,,
1000865,阿拉善盟,内蒙古,,105.69568287112703,焱凰赤城,38.84307526440767,,
1000866,兴安盟,内蒙古,3A,122.04816651406564,龙凤源旅游度假村,46.08375706518232,,
1000867,呼和浩特,内蒙古,,111.6603505200542,晋陕大峡谷,40.828318873081585,,
1000869,鄂尔多斯,内蒙古,,109.99370625145134,红碱淖,39.81648956060153,,
1000870,乌海,内蒙古,,106.83199909716231,金漠滑雪场,39.683177006785236,,
1000871,呼和浩特,内蒙古,,111.6603505200542,清水河老牛湾,40.828318873081585,,
1000872,呼和浩特,内蒙古,,111.6603505200542,普安寺,40.828318873081585,,
1000873,赤峰,内蒙古,,118.9307611921676,灵悦寺,42.297112320317325,,
1000874,赤峰,内蒙古,2A,118.9307611921676,红山公园,42.297112320317325,,
1000875,呼和浩特,内蒙古,4A,111.6603505200542,蒙牛乳业工业园区,40.828318873081585,,
1000876,呼和浩特,内蒙古,2A,111.6603505200542,绥远城将军衙署,40.828318873081585,,
1000877,兴安盟,内蒙古,2A,122.04816651406564,工业经济开发区,46.08375706518232,,
1000878,锡林郭勒盟,内蒙古,,116.02733968895716,奥奇牧村,43.93970484232425,,
1000879,赤峰,内蒙古,,118.9307611921676,乌兰布统影视基地,42.297112320317325,,
1000880,赤峰,内蒙古,,118.9307611921676,耗来河,42.297112320317325,,
1000881,兴安盟,内蒙古,,122.04816651406564,图什业图亲王府,46.08375706518232,,
1000882,巴彦淖尔,内蒙古,,107.42380671968002,三盛公滑雪场,40.76917990242912,,
1000883,包头,内蒙古,,109.84623853249181,迷城真人密室体验中心,40.64711942570857,,
1000884,巴彦淖尔,内蒙古,,107.42380671968002,乌拉山,40.76917990242912,,
1000885,通辽,内蒙古,3A,122.26036326322144,科尔沁博物馆,43.633756072995986,,
1000886,包头,内蒙古,,109.84623853249181,包头昆仑国际滑雪场,40.64711942570857,,
1000887,通辽,内蒙古,2A,122.26036326322144,鸿雁湖,43.633756072995986,,
1000889,乌兰察布,内蒙古,,113.11284639067514,二龙什台,41.02236294675116,,
1000890,呼伦贝尔,内蒙古,2A,119.76082179399947,达永山四季滑雪馆,49.201636054604336,,
1000891,赤峰,内蒙古,,118.9307611921676,热水塘温泉,42.297112320317325,,
1000892,鄂尔多斯,内蒙古,,109.99370625145134,仙沙岛,39.81648956060153,,
1000893,赤峰,内蒙古,,118.9307611921676,宝山壁画,42.297112320317325,,
1000894,锡林郭勒盟,内蒙古,2A,116.02733968895716,探马赤大宫,43.93970484232425,,
1000895,通辽,内蒙古,,122.26036326322144,舍力虎,43.633756072995986,,
1000896,鄂尔多斯,内蒙古,,109.99370625145134,百眼井,39.81648956060153,,
1000897,赤峰,内蒙古,,118.9307611921676,红山区卡酷水乐园,42.297112320317325,,
1000898,赤峰,内蒙古,,118.9307611921676,长青公园,42.297112320317325,,
1000899,兴安盟,内蒙古,2A,122.04816651406564,科右中旗博物馆,46.08375706518232,,
1000900,鄂尔多斯,内蒙古,3A,109.99370625145134,世珍园旅游区,39.81648956060153,,
1000901,包头,内蒙古,,109.84623853249181,内蒙古包头保利高尔夫球会,40.64711942570857,,
1000902,巴彦淖尔,内蒙古,4A,107.42380671968002,维信国际高尔夫度假村,40.76917990242912,,
1000903,巴彦淖尔,内蒙古,,107.42380671968002,常素庙,40.76917990242912,,
1000904,锡林郭勒盟,内蒙古,,116.02733968895716,锡林河,43.93970484232425,,
1000906,锡林郭勒盟,内蒙古,,116.02733968895716,滦源湖景区,43.93970484232425,,
1000907,呼和浩特,内蒙古,,111.6603505200542,豆思主题乐园,40.828318873081585,,
1000908,鄂尔多斯,内蒙古,,109.99370625145134,身临其境3D魔幻艺术画展（方正广场）,39.81648956060153,,
1000909,赤峰,内蒙古,,118.9307611921676,赤峰铁马影视民俗风情园,42.297112320317325,,
1000910,包头,内蒙古,,109.84623853249181,芝麻开门水上威尼斯水上乐园,40.64711942570857,,
1000911,赤峰,内蒙古,,118.9307611921676,白音敖包,42.297112320317325,,
1000912,呼和浩特,内蒙古,,111.6603505200542,鑫悦采摘园,40.828318873081585,,
1000913,赤峰,内蒙古,,118.9307611921676,达拉哈旅游区,42.297112320317325,,
1000914,鄂尔多斯,内蒙古,5A,109.99370625145134,响沙湾,39.81648956060153,,
1000915,乌兰察布,内蒙古,4A,113.11284639067514,格根塔拉草原,41.02236294675116,,
1000916,兴安盟,内蒙古,,122.04816651406564,科尔沁大草原,46.08375706518232,,
1000917,巴彦淖尔,内蒙古,,107.42380671968002,乌梁素海,40.76917990242912,,
1000918,鄂尔多斯,内蒙古,,109.99370625145134,鄂尔多斯广稷农耕博物馆,39.81648956060153,,
1000919,兴安盟,内蒙古,,122.04816651406564,大小神山,46.08375706518232,,
1000921,鄂尔多斯,内蒙古,,109.99370625145134,珍稀植物自然保护区,39.81648956060153,,
1000924,赤峰,内蒙古,,118.9307611921676,百花坡仙人漂流,42.297112320317325,,
1000925,鄂尔多斯,内蒙古,5A,109.99370625145134,成吉思汗陵,39.81648956060153,,
1000926,呼和浩特,内蒙古,,111.6603505200542,敕勒林海农牧业园区,40.828318873081585,,
1000928,兴安盟,内蒙古,2A,122.04816651406564,翰嘎利湖,46.08375706518232,,
1000929,呼和浩特,内蒙古,3A,111.6603505200542,席力图召,40.828318873081585,,
1000930,乌兰察布,内蒙古,,113.11284639067514,玫瑰营天主教堂,41.02236294675116,,
1000931,赤峰,内蒙古,,118.9307611921676,哈河源漂流景区,42.297112320317325,,
1000932,赤峰,内蒙古,,118.9307611921676,荣升十八景风景区,42.297112320317325,,
1000933,呼和浩特,内蒙古,,111.6603505200542,南湖湿地冰雪世界,40.828318873081585,,
1000934,赤峰,内蒙古,2A,118.9307611921676,红山湖,42.297112320317325,,
1000935,赤峰,内蒙古,2A,118.9307611921676,大辽猎苑,42.297112320317325,,
1000938,锡林郭勒盟,内蒙古,,116.02733968895716,锡林郭勒赛马场,43.93970484232425,,
1000940,兴安盟,内蒙古,4A,122.04816651406564,海神圣泉,46.08375706518232,,
1000941,呼伦贝尔,内蒙古,2A,119.76082179399947,凤凰山滑雪场,49.201636054604336,,
1000942,呼伦贝尔,内蒙古,,119.76082179399947,儿童科技馆,49.201636054604336,,
1000943,兴安盟,内蒙古,,122.04816651406564,阿尔山天池,46.08375706518232,,
1000945,鄂尔多斯,内蒙古,2A,109.99370625145134,锦世温泉度假村,39.81648956060153,,
1000947,包头,内蒙古,,109.84623853249181,南海夏季冰雪大世界,40.64711942570857,,
1000948,通辽,内蒙古,,122.26036326322144,纳斯盾大都汇洗浴中心,43.633756072995986,,
1000949,包头,内蒙古,,109.84623853249181,金凯隆演艺广场,40.64711942570857,,
1000950,呼和浩特,内蒙古,3A,111.6603505200542,哈素海,40.828318873081585,,
1000951,赤峰,内蒙古,,118.9307611921676,宁城天沐温泉城,42.297112320317325,,
1000952,兴安盟,内蒙古,,122.04816651406564,不冻河,46.08375706518232,,
1000954,赤峰,内蒙古,,118.9307611921676,赛罕乌拉,42.297112320317325,,
1000955,锡林郭勒盟,内蒙古,2A,116.02733968895716,马文化博物馆,43.93970484232425,,
1000956,呼伦贝尔,内蒙古,3A,119.76082179399947,诺门罕战役遗址,49.201636054604336,,
1000957,兴安盟,内蒙古,,122.04816651406564,梦幻阿尔山,46.08375706518232,,
1000958,巴彦淖尔,内蒙古,,107.42380671968002,巴彦淖尔包百3D画展,40.76917990242912,,
1000959,阿拉善盟,内蒙古,4A,105.69568287112703,贺兰山福因寺（北寺旅游景区）,38.84307526440767,,
1000962,赤峰,内蒙古,,118.9307611921676,西拉沐沦庄园,42.297112320317325,,
1000963,包头,内蒙古,,109.84623853249181,普会寺,40.64711942570857,,
1000964,锡林郭勒盟,内蒙古,,116.02733968895716,啤酒泉,43.93970484232425,,
1000965,鄂尔多斯,内蒙古,,109.99370625145134,精灵王国,39.81648956060153,,
1000967,呼和浩特,内蒙古,,111.6603505200542,酷夏戏水世界,40.828318873081585,,
1000968,乌海,内蒙古,,106.83199909716231,田园乐（采摘园）,39.683177006785236,,
1000969,包头,内蒙古,,109.84623853249181,包头包百3D画展,40.64711942570857,,
1000970,包头,内蒙古,3A,109.84623853249181,包头石门景区,40.64711942570857,,
1000971,呼伦贝尔,内蒙古,,119.76082179399947,扎赉诺尔猛犸旅游区,49.201636054604336,,
1000972,呼伦贝尔,内蒙古,,119.76082179399947,中俄蒙国际欢乐雪城,49.201636054604336,,
1000973,阿拉善盟,内蒙古,,105.69568287112703,阿拉善和硕特亲王府,38.84307526440767,,
1000974,鄂尔多斯,内蒙古,,109.99370625145134,恐龙足迹化石,39.81648956060153,,
1000975,兴安盟,内蒙古,,122.04816651406564,内蒙古乌兰哈达滑雪场,46.08375706518232,,
1000976,锡林郭勒盟,内蒙古,,116.02733968895716,玄石坡,43.93970484232425,,
1000978,呼和浩特,内蒙古,,111.6603505200542,清真大寺,40.828318873081585,,
1000979,呼伦贝尔,内蒙古,,119.76082179399947,典型草原,49.201636054604336,,
1000980,呼和浩特,内蒙古,,111.6603505200542,中威水上乐园,40.828318873081585,,
1000981,呼和浩特,内蒙古,,111.6603505200542,萌豆亲子儿童乐园,40.828318873081585,,
1000982,乌兰察布,内蒙古,,113.11284639067514,梓瑞达亲子冰雪乐园,41.02236294675116,,
1000983,包头,内蒙古,,109.84623853249181,冒险家欢乐园（沃尔玛店）,40.64711942570857,,
1000984,呼和浩特,内蒙古,,111.6603505200542,贝贝乐园,40.828318873081585,,
1000986,呼伦贝尔,内蒙古,2A,119.76082179399947,龙溪山庄,49.201636054604336,,
1000987,包头,内蒙古,2A,109.84623853249181,希拉穆仁草原,40.64711942570857,,
1000988,阿拉善盟,内蒙古,,105.69568287112703,梦想冰雪世界主题嘉年华,38.84307526440767,,
1000989,赤峰,内蒙古,,118.9307611921676,百草敖包,42.297112320317325,,
1000990,通辽,内蒙古,,122.26036326322144,开鲁白塔,43.633756072995986,,
1000991,鄂尔多斯,内蒙古,,109.99370625145134,黄河三峡,39.81648956060153,,
1000992,兴安盟,内蒙古,2A,122.04816651406564,蒙格罕山,46.08375706518232,,
1000993,包头,内蒙古,,109.84623853249181,阿尔丁植物园,40.64711942570857,,
1000994,呼伦贝尔,内蒙古,,119.76082179399947,露西度假营地,49.201636054604336,,
1000995,呼伦贝尔,内蒙古,5A,119.76082179399947,满洲里套娃景区,49.201636054604336,,
1000997,呼伦贝尔,内蒙古,,119.76082179399947,东正教堂,49.201636054604336,,
1000998,兴安盟,内蒙古,,122.04816651406564,阿尔山奥伦布坎景区,46.08375706518232,,
1000999,乌兰察布,内蒙古,2A,113.11284639067514,老虎山公园,41.02236294675116,,
1001000,呼伦贝尔,内蒙古,,119.76082179399947,哈乌尔河景区,49.201636054604336,,
1001001,锡林郭勒盟,内蒙古,4A,116.02733968895716,多伦湖景区,43.93970484232425,,
1001003,巴彦淖尔,内蒙古,,107.42380671968002,温根塔拉草原旅游区,40.76917990242912,,
1001004,赤峰,内蒙古,,118.9307611921676,冰臼奇观,42.297112320317325,,
1001005,赤峰,内蒙古,,118.9307611921676,青山岩臼,42.297112320317325,,
1001006,赤峰,内蒙古,,118.9307611921676,克什克腾草原,42.297112320317325,,
1001007,呼和浩特,内蒙古,,111.6603505200542,大皇城,40.828318873081585,,
1001008,呼伦贝尔,内蒙古,,119.76082179399947,大汗凭吊,49.201636054604336,,
1001009,兴安盟,内蒙古,,122.04816651406564,五里泉,46.08375706518232,,
1001010,阿拉善盟,内蒙古,,105.69568287112703,阿拉善梦想国际航空大会,38.84307526440767,,
1001011,巴彦淖尔,内蒙古,,107.42380671968002,纳林湖景区,40.76917990242912,,
1001012,鄂尔多斯,内蒙古,,109.99370625145134,蒙古源流文化产业园,39.81648956060153,,
1001013,兴安盟,内蒙古,3A,122.04816651406564,万豪蒙古大营,46.08375706518232,,
1001014,赤峰,内蒙古,2A,118.9307611921676,杜鹃山庄,42.297112320317325,,
1001015,鄂尔多斯,内蒙古,4A,109.99370625145134,东联动漫城,39.81648956060153,,
1001016,锡林郭勒盟,内蒙古,2A,116.02733968895716,山西会馆,43.93970484232425,,
1001018,兴安盟,内蒙古,3A,122.04816651406564,成吉思汗庙,46.08375706518232,,
1001019,赤峰,内蒙古,,118.9307611921676,金色萤火虫度假村,42.297112320317325,,
1001020,赤峰,内蒙古,,118.9307611921676,五彩山风景区,42.297112320317325,,
1001022,呼和浩特,内蒙古,,111.6603505200542,飞来寺,40.828318873081585,,
1001023,锡林郭勒盟,内蒙古,,116.02733968895716,正达滑雪场,43.93970484232425,,
1001024,赤峰,内蒙古,,118.9307611921676,静安寺,42.297112320317325,,
1001025,鄂尔多斯,内蒙古,,109.99370625145134,席尼喇嘛纪念塔,39.81648956060153,,
1001026,呼和浩特,内蒙古,,111.6603505200542,内蒙古国际会展中心,40.828318873081585,,
1001027,乌兰察布,内蒙古,,113.11284639067514,岱海温泉城,41.02236294675116,,
1001028,赤峰,内蒙古,,118.9307611921676,梦幻海欢乐世界,42.297112320317325,,
1001029,呼伦贝尔,内蒙古,,119.76082179399947,北湖公园,49.201636054604336,,
1001030,呼和浩特,内蒙古,,111.6603505200542,巧尔气召革命遗址,40.828318873081585,,
1001031,通辽,内蒙古,,122.26036326322144,孝庄园文化旅游区,43.633756072995986,,
1001033,通辽,内蒙古,3A,122.26036326322144,银砂九岛生态旅游区,43.633756072995986,,
1001034,鄂尔多斯,内蒙古,,109.99370625145134,沙漠风情飞行体验,39.81648956060153,,
1001035,兴安盟,内蒙古,,122.04816651406564,鹿鸣湖,46.08375706518232,,
1001036,鄂尔多斯,内蒙古,4A,109.99370625145134,鄂尔多斯康巴什旅游区,39.81648956060153,,
1001037,呼和浩特,内蒙古,,111.6603505200542,奇幻城堡儿童乐园,40.828318873081585,,
1001038,通辽,内蒙古,5A,122.26036326322144,库伦银沙湾,43.633756072995986,,
1001039,呼和浩特,内蒙古,,111.6603505200542,中屹通梦幻海乐园,40.828318873081585,,
1001040,包头,内蒙古,,109.84623853249181,海德俱乐部养生浴场,40.64711942570857,,
1001041,乌兰察布,内蒙古,,113.11284639067514,岩画,41.02236294675116,,
1001042,呼和浩特,内蒙古,4A,111.6603505200542,伊利乳都科技示范园,40.828318873081585,,
1001043,锡林郭勒盟,内蒙古,,116.02733968895716,灰勒盟腾草原,43.93970484232425,,
1001044,锡林郭勒盟,内蒙古,,116.02733968895716,古长城,43.93970484232425,,
1001045,鄂尔多斯,内蒙古,1A,109.99370625145134,转龙湾旅游度假村,39.81648956060153,,
1001046,锡林郭勒盟,内蒙古,2A,116.02733968895716,乃林郭勒旅游度假村,43.93970484232425,,
1001048,赤峰,内蒙古,4A,118.9307611921676,克什克腾石阵景区,42.297112320317325,,
1001049,呼伦贝尔,内蒙古,,119.76082179399947,海拉尔俄罗斯大马戏,49.201636054604336,,
1001050,乌兰察布,内蒙古,3A,113.11284639067514,辉腾锡勒草原,41.02236294675116,,
1001051,包头,内蒙古,,109.84623853249181,包头市固阳县“梅令花海”冰雪艺术游园会,40.64711942570857,,
1001052,锡林郭勒盟,内蒙古,,116.02733968895716,塞纳湾小镇度假区,43.93970484232425,,
1001053,呼伦贝尔,内蒙古,,119.76082179399947,敖鲁古雅使鹿部落景区,49.201636054604336,,
1001054,呼和浩特,内蒙古,,111.6603505200542,浪潮温泉欢乐谷水上乐园,40.828318873081585,,
1001055,鄂尔多斯,内蒙古,,109.99370625145134,郡王府,39.81648956060153,,
1001056,呼伦贝尔,内蒙古,2A,119.76082179399947,中东铁路博物馆,49.201636054604336,,
1001057,乌兰察布,内蒙古,,113.11284639067514,巴音锡勒草原,41.02236294675116,,
1001058,兴安盟,内蒙古,,122.04816651406564,台来花草原,46.08375706518232,,
1001059,呼伦贝尔,内蒙古,,119.76082179399947,黑山头・列夫湿地庄园景区,49.201636054604336,,
1001060,乌兰察布,内蒙古,,113.11284639067514,岱海滑雪场,41.02236294675116,,
1001061,呼伦贝尔,内蒙古,,119.76082179399947,伊敏河,49.201636054604336,,
1001062,锡林郭勒盟,内蒙古,,116.02733968895716,二连浩特市国门旅游景区,43.93970484232425,,
1001063,呼伦贝尔,内蒙古,2A,119.76082179399947,鹿鸣山庄,49.201636054604336,,
1001064,呼伦贝尔,内蒙古,2A,119.76082179399947,呼伦贝尔民族博物馆,49.201636054604336,,
1001065,呼和浩特,内蒙古,,111.6603505200542,身临其境3D魔幻艺术画展（魅力新天地）,40.828318873081585,,
1001066,呼伦贝尔,内蒙古,,119.76082179399947,蒙古之源-根与脉,49.201636054604336,,
1001067,包头,内蒙古,,109.84623853249181,鼎梁羊驼主题乐园,40.64711942570857,,
1001068,呼伦贝尔,内蒙古,,119.76082179399947,中国敖鲁古雅鄂温克族驯鹿文化博物馆,49.201636054604336,,
1001069,呼和浩特,内蒙古,3A,111.6603505200542,乌兰夫故居,40.828318873081585,,
1001071,鄂尔多斯,内蒙古,,109.99370625145134,伊克敖包,39.81648956060153,,
1001072,包头,内蒙古,4A,109.84623853249181,南海旅游区,40.64711942570857,,
1001073,呼和浩特,内蒙古,,111.6603505200542,武川冰雪乐园欢乐谷,40.828318873081585,,
1001074,呼和浩特,内蒙古,,111.6603505200542,南湖公园,40.828318873081585,,
1001075,锡林郭勒盟,内蒙古,,116.02733968895716,芍药谷,43.93970484232425,,
1001076,包头,内蒙古,,109.84623853249181,红黄蓝亲子园（幼儿游乐场）,40.64711942570857,,
1001077,乌海,内蒙古,3A,106.83199909716231,满巴拉僧庙旅游景区,39.683177006785236,,
1001078,包头,内蒙古,,109.84623853249181,青云念佛堂,40.64711942570857,,
1001079,赤峰,内蒙古,2A,118.9307611921676,藏龙谷,42.297112320317325,,
1001081,呼伦贝尔,内蒙古,,119.76082179399947,黑山头口岸,49.201636054604336,,
1001082,呼和浩特,内蒙古,3A,111.6603505200542,蒙亮民族风情园,40.828318873081585,,
1001083,赤峰,内蒙古,,118.9307611921676,庆陵,42.297112320317325,,
1001084,包头,内蒙古,,109.84623853249181,乐优优婴幼儿游乐馆,40.64711942570857,,
1001085,鄂尔多斯,内蒙古,,109.99370625145134,沙日召庙,39.81648956060153,,
1001086,包头,内蒙古,2A,109.84623853249181,蒙古人度假村,40.64711942570857,,
1001087,巴彦淖尔,内蒙古,,107.42380671968002,巴彦淖尔梦幻灯光节,40.76917990242912,,
1001088,鄂尔多斯,内蒙古,,109.99370625145134,伊景园城市沙山,39.81648956060153,,
1001089,呼伦贝尔,内蒙古,,119.76082179399947,思歌腾广场,49.201636054604336,,
1001090,鄂尔多斯,内蒙古,,109.99370625145134,内蒙古大汗行宫,39.81648956060153,,
1001091,鄂尔多斯,内蒙古,4A,109.99370625145134,恩格贝旅游区,39.81648956060153,,
1001092,呼和浩特,内蒙古,,111.6603505200542,内蒙古瑞沃酒庄,40.828318873081585,,
1001094,通辽,内蒙古,3A,122.26036326322144,山地草原旅游区,43.633756072995986,,
1001095,包头,内蒙古,,109.84623853249181,红格尔敖包景区,40.64711942570857,,
1001096,赤峰,内蒙古,,118.9307611921676,赤峰博物馆(富河街店),42.297112320317325,,
1001097,呼伦贝尔,内蒙古,4A,119.76082179399947,呼和诺尔景区,49.201636054604336,,
1001098,兴安盟,内蒙古,,122.04816651406564,代钦塔拉王爷庙,46.08375706518232,,
1001099,呼伦贝尔,内蒙古,,119.76082179399947,第十二届中国满洲里・中俄蒙美丽使者国际大赛,49.201636054604336,,
1001100,包头,内蒙古,,109.84623853249181,包头国际会展中心恐龙园展览,40.64711942570857,,
1001102,鄂尔多斯,内蒙古,4A,109.99370625145134,鄂尔多斯草原旅游区,39.81648956060153,,
1001103,赤峰,内蒙古,,118.9307611921676,辽上京城遗址,42.297112320317325,,
1001105,通辽,内蒙古,,122.26036326322144,福缘寺,43.633756072995986,,
1001106,锡林郭勒盟,内蒙古,,116.02733968895716,锡林郭勒大草原,43.93970484232425,,
1001107,鄂尔多斯,内蒙古,4A,109.99370625145134,七星湖沙漠风景区,39.81648956060153,,
1001109,呼伦贝尔,内蒙古,,119.76082179399947,哈克博物馆,49.201636054604336,,
1001110,巴彦淖尔,内蒙古,,107.42380671968002,狼山石刻,40.76917990242912,,
1001111,乌海,内蒙古,,106.83199909716231,黄河滩岛,39.683177006785236,,
1001112,赤峰,内蒙古,,118.9307611921676,赤峰狼牙户外拓展俱乐部,42.297112320317325,,
1001113,鄂尔多斯,内蒙古,,109.99370625145134,大沟湾景区,39.81648956060153,,
1001114,呼伦贝尔,内蒙古,,119.76082179399947,成吉思汗广场,49.201636054604336,,
1001115,兴安盟,内蒙古,,122.04816651406564,多米诺,46.08375706518232,,
1001116,包头,内蒙古,,109.84623853249181,昆河冰雪大世界,40.64711942570857,,
1001117,呼和浩特,内蒙古,,111.6603505200542,河灯展,40.828318873081585,,
1001118,锡林郭勒盟,内蒙古,,116.02733968895716,呼很淖,43.93970484232425,,
1001119,呼伦贝尔,内蒙古,2A,119.76082179399947,临江原生态公园,49.201636054604336,,
1001120,赤峰,内蒙古,,118.9307611921676,根丕庙,42.297112320317325,,
1001121,巴彦淖尔,内蒙古,2A,107.42380671968002,镜湖生态旅游区,40.76917990242912,,
1001122,呼和浩特,内蒙古,,111.6603505200542,成吉思汗公园,40.828318873081585,,
1001123,包头,内蒙古,,109.84623853249181,童悦梦想游乐园,40.64711942570857,,
1001124,锡林郭勒盟,内蒙古,,116.02733968895716,锡林郭勒盟明安图生态园,43.93970484232425,,
1001125,兴安盟,内蒙古,,122.04816651406564,摩天岭,46.08375706518232,,
1001127,鄂尔多斯,内蒙古,2A,109.99370625145134,陶亥召,39.81648956060153,,
1001128,包头,内蒙古,1A,109.84623853249181,西河水库,40.64711942570857,,
1001130,兴安盟,内蒙古,,122.04816651406564,科尔沁右翼前旗王朝养生汤泉会馆,46.08375706518232,,
1001131,兴安盟,内蒙古,2A,122.04816651406564,天府园旅游休闲山庄,46.08375706518232,,
1001132,乌兰察布,内蒙古,,113.11284639067514,九龙湾,41.02236294675116,,
1001133,呼和浩特,内蒙古,,111.6603505200542,内蒙古赛马场,40.828318873081585,,
1001135,呼伦贝尔,内蒙古,,119.76082179399947,绿然食品,49.201636054604336,,
1001136,赤峰,内蒙古,,118.9307611921676,红山军马场,42.297112320317325,,
1001137,锡林郭勒盟,内蒙古,2A,116.02733968895716,滦源殿旅游度假村,43.93970484232425,,
1001138,兴安盟,内蒙古,,122.04816651406564,准格尔暖水温泉,46.08375706518232,,
1001139,呼伦贝尔,内蒙古,,119.76082179399947,民族文化园,49.201636054604336,,
1001140,赤峰,内蒙古,,118.9307611921676,蛤蟆坝,42.297112320317325,,
1001141,呼伦贝尔,内蒙古,,119.76082179399947,神指峡,49.201636054604336,,
1001143,包头,内蒙古,,109.84623853249181,石门,40.64711942570857,,
1001144,呼伦贝尔,内蒙古,,119.76082179399947,一代天骄中电生态文化景区,49.201636054604336,,
1001146,鄂尔多斯,内蒙古,3A,109.99370625145134,库布其沙漠,39.81648956060153,,
1001147,鄂尔多斯,内蒙古,,109.99370625145134,九城宫生态园,39.81648956060153,,
1001148,鄂尔多斯,内蒙古,3A,109.99370625145134,准格尔召,39.81648956060153,,
1001149,包头,内蒙古,,109.84623853249181,转龙藏,40.64711942570857,,
1001150,鄂尔多斯,内蒙古,,109.99370625145134,乌兰活佛府,39.81648956060153,,
1001151,锡林郭勒盟,内蒙古,1A,116.02733968895716,社保局旅游点,43.93970484232425,,
1001152,呼伦贝尔,内蒙古,4A,119.76082179399947,根河源国家湿地公园,49.201636054604336,,
1001153,鄂尔多斯,内蒙古,2A,109.99370625145134,绿梦苑山庄,39.81648956060153,,
1001154,呼伦贝尔,内蒙古,,119.76082179399947,满洲里欧式旅游观光婚礼宫,49.201636054604336,,
1001155,呼和浩特,内蒙古,,111.6603505200542,敕勒川民俗博物馆,40.828318873081585,,
1001156,呼和浩特,内蒙古,,111.6603505200542,悠悠糖儿童乐园,40.828318873081585,,
1001157,鄂尔多斯,内蒙古,,109.99370625145134,银肯塔拉沙漠生态文化旅游区,39.81648956060153,,
1001158,呼和浩特,内蒙古,,111.6603505200542,玫瑰绿植庄园,40.828318873081585,,
1001159,呼伦贝尔,内蒙古,,,英雄联盟彩弹抢俱乐部,,,
1001160,巴彦淖尔,内蒙古,,,甘露寺,,,
1001161,兴安,内蒙古,,,柴河源大峡谷,,,
1001162,呼伦贝尔,内蒙古,,,苏炳文广场,,,
1001163,呼和浩特,内蒙古,,,昭君墓(装修中),,,
1001164,锡林郭勒,内蒙古,,,额尔敦敖包公园,,,
1001165,鹤岗,内蒙古,,,红军堂,,,
1001166,呼和浩特,内蒙古,,,新城（太鲁阁）火车站,,,
1001167,桂林,内蒙古,,,灵渠,,,
1001168,乌兰察布,内蒙古,,,白泉山公园,,,
1001169,阿拉善,内蒙古,,,神树,,,
1001170,鄂尔多斯,内蒙古,,,悦沙岛,,,
1001171,包头,内蒙古,,,南海湿地保护区,,,
1001172,赤峰,内蒙古,,,赤峰红山公园,,,
1001173,包头,内蒙古,,,赛罕塔拉公园,,,
1001174,通辽,内蒙古,,,西拉木伦公园,,,
1001175,兴安,内蒙古,,,白音哈达草原,,,
1001176,呼和浩特,内蒙古,,,如意广场,,,
1001177,呼伦贝尔,内蒙古,,,诺门罕战役遗址陈列馆,,,
1001178,呼和浩特,内蒙古,,,南山公园,,,
1001179,呼伦贝尔,内蒙古,,,苏联红军烈士陵园,,,
1001180,通辽,内蒙古,,,罕山风景区,,,
1001181,鹤岗,内蒙古,,,兴安水街,,,
1001182,呼伦贝尔,内蒙古,,,扎兰屯风景名胜区,,,
1001183,呼伦贝尔,内蒙古,,,白鹿岛,,,
1001184,呼伦贝尔,内蒙古,,,得尔布尔河,,,
1001185,兴安,内蒙古,,,灵渠・水街,,,
1001186,呼伦贝尔,内蒙古,,,上护林,,,
1001187,桂林,内蒙古,,,乐满地矿温泉,,,
1001188,,内蒙古,,,达斡尔民族风情园,,,
1001189,呼伦贝尔,内蒙古,,,呼伦贝尔民族博物院,,,
1001190,桂林,内蒙古,,,乳洞岩,,,
1001191,兴安,内蒙古,,,阿尔山海神圣泉旅游度假区,,,
1001192,呼伦贝尔,内蒙古,,,绿星文化广场,,,
1001193,乌海,内蒙古,,,五指山市,,,
1001194,巴彦淖尔,内蒙古,,,乌拉特部落海洋世界,,,
1001195,巴彦淖尔,内蒙古,,,河套公园,,,
1001196,锡林郭勒,内蒙古,,,蒙古汗城,,,
1001197,巴彦淖尔,内蒙古,,,河迹湖,,,
1001198,阿尔山,内蒙古,非A级,,杜鹃湖,,428,
1001199,卓资,内蒙古,4A,,林胡古塞,,48,
1001200,阿尔山,内蒙古,非A级,,奥伦布坎景区,,85,
1001201,固阳,内蒙古,非A级,,秦长城遗址,,98,
1001203,满洲里,内蒙古,非A级,,克罗丽亚钢管舞演艺,,98,
1001204,通辽,内蒙古,非A级,,珠日河草原旅游区,,130,
1001205,满洲里,内蒙古,非A级,,扎赉诺尔儿童科技馆,,950,
1001206,呼和浩特,内蒙古,非A级,,伊利工业园区,,339,
1001207,兴和,内蒙古,4A,,察尔湖旅游区,,38,
1001208,呼伦贝尔,内蒙古,非A级,,陈巴尔虎旗民族博物馆,,699,
1001209,满洲里,内蒙古,非A级,,中俄互市贸易区,,699,
1001210,根河,内蒙古,非A级,,黑山头,,378,
1001211,满洲里,内蒙古,非A级,,扎赉诺尔国家矿山博物馆,,950,
1001212,呼和浩特,内蒙古,非A级,,沐蓝爵汗蒸养生馆,,38,
1001213,满洲里,内蒙古,非A级,,满洲里,,148,
1001214,阿尔山,内蒙古,非A级,,海神温泉会馆,,80,
1001215,满洲里,内蒙古,非A级,,中俄蒙三国民族风情歌舞演绎,,168,
1001216,克什克腾旗,内蒙古,非A级,,滦河源头,,628,
1001217,阿拉善左旗,内蒙古,非A级,,漠客越野营地,,260,
1001218,满洲里,内蒙古,非A级,,国际饭店俄罗斯歌舞表演,,238,
1001219,乌兰察布,内蒙古,4A,,辉腾锡勒黄花沟草原旅游区,,225,
1001220,包头,内蒙古,4A,,北方兵器城,,98,
1001221,克什克腾旗,内蒙古,非A级,,桦木沟林场,,498,
1001222,额尔古纳,内蒙古,非A级,,黑山头古城,,500,
1001223,乌兰察布,内蒙古,4A,,凉城岱海,,118,
1001224,克什克腾旗,内蒙古,非A级,,夹皮沟,,5600,
1001225,鄂尔多斯,内蒙古,非A级,,万家惠欢乐世界欢乐水世界,,99,
1001226,满洲里,内蒙古,非A级,,二卡湿地自然保护区,,168,
1001227,扎兰屯,内蒙古,非A级,,汗庭家园漂流,,50,
1001228,多伦,内蒙古,非A级,,清水湾温泉,,19.9,
1001229,库伦旗,内蒙古,非A级,,银沙湾,,125,
1001230,呼伦贝尔,内蒙古,4A,,巴尔虎蒙古部落民俗旅游度假景区,,78,
1001232,额尔古纳,内蒙古,非A级,,莫尔道嘎,,3400,
1001233,乌兰察布,内蒙古,非A级,,RS国际卡丁车俱乐部,,68,
1001235,额尔古纳,内蒙古,非A级,,恩和,,458,
1001236,包头,内蒙古,非A级,,芝麻开门水上威尼斯乐园,,128,
1001237,呼伦贝尔,内蒙古,非A级,,3D错觉艺术馆,,30,
1001238,阿尔山,内蒙古,非A级,,《梦幻阿尔山》演出,,138,
1001239,鄂尔多斯,内蒙古,4A,,苏泊罕大草原旅游景区,,90,
1001240,包头,内蒙古,非A级,,红格尔敖包旅游景区,,136,
1001241,额尔古纳,内蒙古,非A级,,临江屯,,550,
1001242,锡林浩特,内蒙古,非A级,,乌拉盖乞颜部落度假区,,70,
1001243,兴安盟,内蒙古,非A级,,新巴尔虎左旗,,4900,
1001244,满洲里,内蒙古,非A级,,火车头广场,,2750,
1001245,鄂尔多斯,内蒙古,4A,,鄂尔多斯野生动物园,,120,
1001246,额尔古纳,内蒙古,非A级,,弘吉剌部,,400,
1001247,阿拉善,内蒙古,4A,,额济纳胡杨林旅游区,,1820,
1001248,阿拉善,内蒙古,4A,,南寺风景区,,70,
1001249,满洲里,内蒙古,非A级,,边防公路,,378,
1001250,赤峰,内蒙古,非A级,,达里湖北岸景区,,70,
1001251,赤峰,内蒙古,非A级,,海贝尔梦幻海欢乐世界,,79,
1001252,满洲里,内蒙古,非A级,,特色俄罗斯歌舞表演,,100,
1001253,通辽,内蒙古,非A级,,通辽纳斯盾大都汇,,18,
1001254,锡林浩特,内蒙古,非A级,,中国马都,,178,
1001255,牙克石,内蒙古,非A级,,大雁河生态园,,25,
1001256,阿拉善左旗,内蒙古,4A,,福因寺（北寺）旅游区,,56,
1001257,兴安盟,内蒙古,4A,,阿尔山温泉,,4900,
1001258,克什克腾旗,内蒙古,非A级,,五彩山,,660,
1001259,满洲里,内蒙古,非A级,,铁木真大汗行营,,168,
1001261,根河,内蒙古,非A级,,满归伊克萨玛国家森林公园,,3700,
1001262,兴和,内蒙古,非A级,,苏木山旅游区,,45,
1001263,额尔古纳,内蒙古,非A级,,额尔古纳河,,2750,
1001264,克什克腾旗,内蒙古,非A级,,北沟风景区,,660,
1001265,克什克腾旗,内蒙古,非A级,,十二座联营,,799,
1001266,鄂尔多斯,内蒙古,4A,,七星湖沙漠生态旅游区,,68,
1001267,兴安盟,内蒙古,非A级,,天池,,2280,
1001268,通辽,内蒙古,非A级,,小青湖水上乐园景区,,168,
1001269,呼伦贝尔,内蒙古,非A级,,中央桥,,4400,
1001270,乌兰察布,内蒙古,非A级,,怡水山庄温泉浴场,,53,
1001271,鄂尔多斯,内蒙古,非A级,,铁牛（大浪淘沙）温泉会馆,,35,
1001272,兴安盟,内蒙古,非A级,,王朝养生汤泉,,22.9,
1001273,乌海,内蒙古,非A级,,乌海湖生态旅游区,,65,
1001274,满洲里,内蒙古,非A级,,婚礼宫,,75,
1001275,包头,内蒙古,非A级,,南海嘉年华乐园,,55,
1001276,呼和浩特,内蒙古,非A级,,梦幻海乐园,,59,
1001277,伊金霍洛旗,内蒙古,非A级,,源流文化产业园,,420,
1001278,陈巴尔虎旗,内蒙古,非A级,,190天边草原游牧部落,,20,
1001279,呼伦贝尔,内蒙古,非A级,,敖鲁古雅驯鹿之乡,,550,
1001280,乌海,内蒙古,4A,,金沙湾生态旅游区,,55,
1001281,陈巴尔虎旗,内蒙古,非A级,,一代天骄草原景区,,350,
1001282,满洲里,内蒙古,非A级,,满洲里市博物馆,,2750,
1001283,额尔古纳,内蒙古,非A级,,恩和俄罗斯民族乡,,1940,
1001285,阿尔山,内蒙古,非A级,,阿尔山,,1188,
1001286,通辽,内蒙古,4A,,库伦三大寺,,45,
1001287,克什克腾旗,内蒙古,非A级,,四方城黄牛养殖基地,,660,
1001288,通辽,内蒙古,非A级,,民族游乐园,,168,
1001289,鄂尔多斯,内蒙古,非A级,,库布齐沙漠窝阔台景区,,58,
1001290,乌兰察布,内蒙古,非A级,,国际马术演艺小镇,,9.9,
1001291,包头,内蒙古,非A级,,吉穆斯泰景区,,105,
1001292,呼伦贝尔,内蒙古,非A级,,伊敏河公园,,4400,
1001293,巴彦淖尔,内蒙古,4A,,黄河三盛公水利风景区,,65,
1001294,赤峰,内蒙古,4A,,道须沟风景区,,75,
1001295,额济纳旗,内蒙古,非A级,,八道桥,,3688,
1001296,乌海,内蒙古,非A级,,蒙根花光伏乐园,,30,
1001297,阿拉善,内蒙古,4A,,通湖湿地草原旅游区,,54,
1001298,满洲里,内蒙古,非A级,,苏联红军烈士公园,,4400,
1001299,赤峰,内蒙古,非A级,,克旗青山国家地质公园,,120,
1001300,呼和浩特,内蒙古,非A级,,木子塘汤泉,,52,
1001301,额尔古纳,内蒙古,非A级,,额尔古纳,,258,
1001302,满洲里,内蒙古,非A级,,满洲里北湖公园,,75,
1001303,克什克腾旗,内蒙古,非A级,,杨树背,,458,
1001305,兴安盟,内蒙古,非A级,,阿尔山火车站,,4900,
1001306,呼伦贝尔,内蒙古,非A级,,海拉尔,,1890,
1001307,巴彦淖尔,内蒙古,非A级,,芝麻开门水世界,,118,
1001308,赤峰,内蒙古,4A,,达里湖―南岸景区,,100,
1001309,呼伦贝尔,内蒙古,,,牙克石凤凰山滑雪场,,,滑雪
1001310,呼伦贝尔,内蒙古,,,蒙兀室韦文化旅游景区,,,
1001311,呼伦贝尔,内蒙古,,,呼和诺尔草原旅游度假区,,180,
1001312,赤峰,内蒙古,,,赤峰敖汉温泉城,,55,"万圣狂欢,家庭亲子,浪漫圣诞,温泉,节假日旅游胜地"
1001313,鄂尔多斯,内蒙古,,,鄂尔多斯东联影视动漫城,,55,
1001314,鄂尔多斯,内蒙古,,,鄂尔多斯大草原,,148,
1001315,赤峰,内蒙古,,,翁旗玉龙沙湖,,20,
1001316,赤峰,内蒙古,,,阿斯哈图石林,,135,
1001317,鄂尔多斯,内蒙古,,,万通生态旅游区,,88,
1001318,巴彦淖尔,内蒙古,,,三盛公黄河水利枢纽,,65,
1001319,呼和浩特,内蒙古,,,内蒙古大学,,,
1001320,鄂尔多斯,内蒙古,,,桌子山岩画,,,
1001321,呼伦贝尔,内蒙古,,,阿敦础鲁石洞,,,
1001322,桂林,内蒙古,,,古严关,,,
1001324,包头,内蒙古,,,包头市图书馆,,,
1001325,呼和浩特,内蒙古,,,观音寺,,,
1001326,锡林郭勒,内蒙古,,,赛汉塔拉旅游园,,,
1001327,桂林,内蒙古,,,漠川古墓,,,
1001329,赤峰,内蒙古,,,达达线,,,
1001330,赤峰,内蒙古,,,经山线,,,
1001331,锡林郭勒,内蒙古,,,九世班禅行宫,,,
1001332,赤峰,内蒙古,,,旺业甸国家森林公园,,,
1001333,兴安,内蒙古,,,白音哈达,,,
1001334,赤峰,内蒙古,,,天太永村,,,
1001335,乌海,内蒙古,,,四合木自然保护区,,,
1001336,呼伦贝尔,内蒙古,,,七卡,,,
1001337,巴彦淖尔,内蒙古,,,三封古城遗址,,,
1001338,锡林郭勒,内蒙古,,,乌兰五台,,,
1001339,兴安,内蒙古,,,伊尔施镇,,,
1001340,赤峰,内蒙古,,,草原湖,,,
1001342,赤峰,内蒙古,,,坝上牧歌营地,,,
1001343,锡林郭勒,内蒙古,,,呼尔查干淖尔,,,
1001344,锡林郭勒,内蒙古,,,哈音海尔瓦庙,,,
1001345,呼伦贝尔,内蒙古,,,观景亭,,,
1001346,呼和浩特,内蒙古,,,内蒙古科技馆,,,
1001347,锡林郭勒,内蒙古,,,阿荣塔拉休闲牧场,,,
1001348,锡林郭勒,内蒙古,,,锡林九曲,,,
1001349,呼伦贝尔,内蒙古,,,太平村庄,,,
1001350,阿拉善,内蒙古,,,贺兰山原始森林,,,
1001351,赤峰,内蒙古,,,乌兰布统旅游景区,,,
1001352,乌海,内蒙古,,,召烧沟岩洞穴,,,
1001353,呼伦贝尔,内蒙古,,,达莱湖旅游区,,,
1001354,通辽,内蒙古,,,三岔口漂流景区,,,
1001355,赤峰,内蒙古,,,克什克腾旗博物馆,,,
1001356,呼伦贝尔,内蒙古,,,怡人桥,,,
1001357,赤峰,内蒙古,,,玉龙沙湖景区,,,
1001358,呼和浩特,内蒙古,,,蒙古风情园,,,
1001359,锡林郭勒,内蒙古,,,成吉思汗t望山,,,
1001360,呼伦贝尔,内蒙古,,,金河,,,
1001361,阿拉善,内蒙古,,,胡杨林自然保护区,,,
1001362,阿拉善,内蒙古,,,海森楚鲁景区,,,
1001363,赤峰,内蒙古,,,玉龙景区,,,
1001364,呼和浩特,内蒙古,,,千手千眼观音院,,,
1001365,呼伦贝尔,内蒙古,,,保安寺,,,
1001366,呼和浩特,内蒙古,,,神泉生态旅游风景区,,,
1001367,呼伦贝尔,内蒙古,,,满洲里套娃广场,,,
1001368,鹤岗,内蒙古,,,漓江源大峡谷,,,
1001369,乌海,内蒙古,,,天主堂,,,
1001370,锡林郭勒,内蒙古,,,大乘法胤法轮寺,,,
1001372,赤峰,内蒙古,,,砧子山古岩画,,,
1001373,呼伦贝尔,内蒙古,,,扎赉诺尔,,,
1001374,呼和浩特,内蒙古,,,慈济精舍,,,
1001375,呼和浩特,内蒙古,,,三栈溪,,,
1001376,兴安,内蒙古,,,阿尔山温泉博物馆,,,
1001377,呼和浩特,内蒙古,,,玉泉公园,,,
1001378,呼伦贝尔,内蒙古,,,广慧寺,,,
1001379,赤峰,内蒙古,,,翁牛特旗地质公园,,,
1001381,乌兰察布,内蒙古,,,唐代单于大都护府遗址,,,
1001382,呼和浩特,内蒙古,,,大窑村石器制造场,,,
1001383,包头,内蒙古,,,商会文化广场,,,
1001384,呼和浩特,内蒙古,,,内蒙古美术馆,,,
1001385,通辽,内蒙古,,,塔敏查干沙漠旅游景区,,,
1001386,兴安,内蒙古,,,翰嘎利湖生态旅游区,,,
1001387,呼和浩特,内蒙古,,,春度廉政文化公园,,,
1001389,锡林郭勒,内蒙古,,,石条山,,,
1001390,呼和浩特,内蒙古,,,蒙古风情街,,,
1001391,包头,内蒙古,,,萨拉齐生态公园,,,
1001392,呼伦贝尔,内蒙古,,,中俄商贸步行街,,,
1001393,呼和浩特,内蒙古,,,宝尔汗佛塔,,,
1001394,西安,内蒙古,,,光隆宇宙乐园,,,
1001395,乌海,内蒙古,,,琼海,,,
1001396,呼伦贝尔,内蒙古,,,一目九岭,,,
1001398,呼伦贝尔,内蒙古,,,吉祥草原,,,
1001400,包头,内蒙古,,,大仙山,,,
1001401,呼和浩特,内蒙古,,,内蒙古蒙博博物馆,,,
1001402,呼伦贝尔,内蒙古,,,吉宝沟国家矿山公园,,,
1001403,锡林郭勒,内蒙古,,,小扎格斯台淖尔,,,
1001404,呼伦贝尔,内蒙古,,,北国第一门,,,
1001405,包头,内蒙古,,,梅力更自然风景区,,,
1001406,西安,内蒙古,,,广安宫,,,
1001407,通辽,内蒙古,,,扎鲁特旗山地草原旅游区(军马场),,,
1001408,锡林郭勒,内蒙古,,,汗海日罕山,,,
1001409,赤峰,内蒙古,,,热阿线,,,
1001410,兴安,内蒙古,,,世纪冰川灵佛洞,,,
1001411,乌兰察布,内蒙古,,,窝阔台蒙元文化度假中心,,,
1001412,通辽,内蒙古,,,唐十将军山自然保护区,,,
1001413,赤峰,内蒙古,,,白音乌拉草原,,,
1001414,兴安,内蒙古,,,不冻河畔风情园,,,
1001415,包头,内蒙古,,,哈撒儿景区,,,
1001416,鹤岗,内蒙古,,,老人山,,,
1001418,锡林郭勒,内蒙古,,,三道沟林场,,,
1001420,鹤岗,内蒙古,,,湘江烈士碑园,,,
1001421,通辽,内蒙古,,,哲里木盟博物馆,,,
1001422,通辽,内蒙古,,,响山自然保护区,,,
1001423,鄂尔多斯,内蒙古,,,丁红湾,,,
1001424,赤峰,内蒙古,,,阿斯哈图石林园区,,,
1001425,锡林郭勒,内蒙古,,,西乌珠穆沁草原,,,
1001426,赤峰,内蒙古,,,金界壕遗址,,,
1001427,包头,内蒙古,,,南海滑雪场,,,
1001428,,内蒙古,,,月亮泡,,,
1001429,,内蒙古,,,鄂尔多斯青铜文化广场,,,
1001430,呼伦贝尔,内蒙古,,,扎兰屯,,,
1001431,阿拉善,内蒙古,,,额里森达来(沙海)旅游区,,,
1001432,阿拉善,内蒙古,,,庙海子(苏敏吉林),,,
1001433,呼伦贝尔,内蒙古,,,吉布胡郎图苏木,,,
1001434,呼伦贝尔,内蒙古,,,凝翠山,,,
1001435,锡林郭勒,内蒙古,,,查干敖包庙,,,
1001436,赤峰,内蒙古,,,花腰子山,,,
1001437,,内蒙古,,,乌龙山,,,
1001440,赤峰,内蒙古,,,姊妹湖,,,
1001441,呼和浩特,内蒙古,,,蒙古方博物馆,,,
1001442,赤峰,内蒙古,,,热水塘温泉园区,,,
1001445,乌海,内蒙古,,,煤炭博物馆,,,
1001446,海南,内蒙古,,,永乐群岛,,,
1001448,巴彦淖尔,内蒙古,,,内蒙古酒文化博物馆,,,
1001449,锡林郭勒,内蒙古,,,玛拉盖庙（咸安寺）,,,
1001450,乌海,内蒙古,,,一线天景区,,,
1001451,呼和浩特,内蒙古,,,扎达盖公园,,,
1001452,通辽,内蒙古,,,莫力庙沙湖旅游区,,,
1001453,呼和浩特,内蒙古,,,小召崇福寺,,,
1001454,鹤岗,内蒙古,,,桂林猫儿山,,,
1001455,桂林,内蒙古,,,忘忧谷度假山庄,,,
1001456,呼伦贝尔,内蒙古,,,仙人台,,,
1001457,赤峰,内蒙古,,,达里诺尔湖景区,,,
1001458,赤峰,内蒙古,,,青山岩臼景区,,,
1001459,呼伦贝尔,内蒙古,,,黑龙泉,,,
1001460,赤峰,内蒙古,,,西拉沐沦大峡谷,,,
1001461,赤峰,内蒙古,,,灯笼河子草原,,,
1001462,呼伦贝尔,内蒙古,,,林海听涛,,,
1001463,呼伦贝尔,内蒙古,,,奥克里堆山,,,
1001464,锡林郭勒,内蒙古,,,乌里雅斯太镇,,,
1001465,阿拉善,内蒙古,,,额济纳旗,,,
1001466,呼伦贝尔,内蒙古,,,俄罗斯族民俗馆,,,
1001467,,内蒙古,,,甘泉岛,,,
1001468,呼和浩特,内蒙古,,,姑娘湖,,,
1001469,锡林郭勒,内蒙古,,,金莲川,,,
1001470,,内蒙古,,,鸭公岛,,,
1001471,呼和浩特,内蒙古,,,家和公园,,,
1001472,阿拉善,内蒙古,,,营盘山生态公园,,,
1001474,呼伦贝尔,内蒙古,,,满洲里火车头广场,,,
1001475,巴彦淖尔,内蒙古,,,维信高尔夫度假村,,,
1001476,锡林郭勒,内蒙古,,,元上都遗址,,,
1001477,阿拉善,内蒙古,,,四道桥(英雄林),,,
1001478,巴彦淖尔,内蒙古,,,炭窑口红石山,,,
1001479,巴彦淖尔,内蒙古,,,甘其毛道口岸,,,
1001480,赤峰,内蒙古,,,巴林,,,
1001482,呼伦贝尔,内蒙古,,,金海岸旅游景区,,,
1001483,阿拉善,内蒙古,,,乌兰布和沙漠旅游区,,,
1001484,锡林郭勒,内蒙古,,,白音锡勒牧场景区,,,
1001485,兴安,内蒙古,,,林俗文化景观区,,,
1001486,锡林郭勒,内蒙古,,,白桦林,,,
1001487,包头,内蒙古,,,金驼漫步,,,
1001488,呼伦贝尔,内蒙古,,,古源镇,,,
1001489,锡林郭勒,内蒙古,,,连心桥,,,
1001490,赤峰,内蒙古,,,红山子乡,,,
1001491,呼和浩特,内蒙古,,,新城天主堂,,,
1001492,阿拉善,内蒙古,,,印德日图神泉,,,
1001493,赤峰,内蒙古,,,赤峰博物馆,,,
1001494,赤峰,内蒙古,,,热水塘镇,,,
1001495,呼伦贝尔,内蒙古,,,阿尔山庙,,,
1001496,呼伦贝尔,内蒙古,,,龙岩山景区,,,
1001497,呼伦贝尔,内蒙古,,,八间房,,,
1001498,桂林,内蒙古,,,水源头村,,,
1001499,呼伦贝尔,内蒙古,,,根河,,,
1001500,兴安,内蒙古,,,摩天岭(阿尔山),,,
1001501,锡林郭勒,内蒙古,,,侍郎城,,,
1001502,赤峰,内蒙古,,,碧海银滩,,,
1001503,呼伦贝尔,内蒙古,,,伊克萨玛国家森林公园,,,
1001504,呼伦贝尔,内蒙古,,,下央格气林场,,,
1001507,阿拉善,内蒙古,,,蚂蚁森林梭梭三号林,,,
1001508,呼伦贝尔,内蒙古,,,库图尔其广场,,,
1001509,乌兰察布,内蒙古,,,察哈尔民俗博物馆,,,
1001510,呼伦贝尔,内蒙古,,,五星村,,,
1001511,呼伦贝尔,内蒙古,,,七仙湖,,,
1001513,呼伦贝尔,内蒙古,,,呼和诺尔旅游景区,,,
1001515,赤峰,内蒙古,,,勃隆克沙漠旅游区,,,
1001516,呼伦贝尔,内蒙古,,,鹿鸣山,,,
1001517,呼伦贝尔,内蒙古,,,白鹭岛,,,
1001518,通辽,内蒙古,,,康平金沙滩沙漠公园,,,
1001520,兴安,内蒙古,,,兴安盟,,,
1001521,通辽,内蒙古,,,国家级东沟湿地狩猎区,,,
1001523,呼和浩特,内蒙古,,,内蒙古大学民族博物馆,,,
1001524,赤峰,内蒙古,,,阿斯哈图国家地质公园,,,
1001525,锡林郭勒,内蒙古,,,多伦湖风景区(西山湾水库),,,
1001526,乌海,内蒙古,,,李华中滩,,,
1001527,乌海,内蒙古,,,海南公园,,,
1001528,鄂尔多斯,内蒙古,,,甘霖乌素旅游景区,,,
1001529,赤峰,内蒙古,,,平顶山冰斗群园区,,,
1001530,鄂尔多斯,内蒙古,,,康镇,,,
1001532,呼和浩特,内蒙古,,,乌素图国家森林公园,,,
1001533,桂林,内蒙古,,,桂林海底龙宫,,,
1001535,呼伦贝尔,内蒙古,,,鹿道,,,
1001536,赤峰,内蒙古,,,布日敦沙漠旅游区,,,
1001538,,内蒙古,,,石岛,,,
1001539,鄂尔多斯,内蒙古,,,准格尔召旅游区,,,
1001540,呼和浩特,内蒙古,,,内蒙古地质矿产陈列馆,,,
1001541,包头,内蒙古,,,昆都仑召,,,
1001543,呼伦贝尔,内蒙古,,,高山湿地生态涵养区,,,
1001544,桂林,内蒙古,,,秦家大院,,,
1001545,呼伦贝尔,内蒙古,,,根河断桥,,,
1001546,包头,内蒙古,,,九峰山自然保护区,,,
1001548,乌海,内蒙古,,,甘德尔山奇峡谷,,,
1001549,赤峰,内蒙古,,,天元游泳馆,,,
1001551,赤峰,内蒙古,,,赤峰南山生态园,,,
1001552,呼伦贝尔,内蒙古,,,民族团结广场,,,
1001553,呼伦贝尔,内蒙古,,,阿里河源头景区,,,
1001554,呼伦贝尔,内蒙古,,,激流河大桥,,,
1001555,呼和浩特,内蒙古,,,塞上老街,,,
1001556,呼伦贝尔,内蒙古,,,激流河,,,
1001557,呼伦贝尔,内蒙古,,,敖鲁古雅鄂温克族驯鹿文化博物馆,,,
1001560,呼伦贝尔,内蒙古,,,根河源湿地公园,,,
1001561,呼和浩特,内蒙古,,,北郊公园,,,
1001562,阿拉善,内蒙古,,,必鲁图沙峰,,,
1001563,锡林郭勒,内蒙古,,,查干淖尔,,,
1001564,通辽,内蒙古,,,内蒙古通辽市孝庄园文化旅游区,,,
1001565,呼和浩特,内蒙古,,,青城公园,,,
1001566,鄂尔多斯,内蒙古,,,红海子湿地公园,,,
1001567,包头,内蒙古,,,奥林匹克体育中心,,,
1001568,赤峰,内蒙古,,,小野鸭湖,,,
1001569,包头,内蒙古,,,银河广场,,,
1001570,西安,内蒙古,,,七星潭石凋公园,,,
1001572,锡林郭勒,内蒙古,,,阿巴嘎博物馆,,,
1001574,锡林郭勒,内蒙古,,,二连浩特恐龙故里,,,
1001575,通辽,内蒙古,,,经缘寺,,,
1001576,呼伦贝尔,内蒙古,,,牛耳河,,,
1001577,赤峰,内蒙古,,,道须沟旅游风景区,,,
1001578,呼伦贝尔,内蒙古,,,嘎鲁图嘎查牧户游,,,
1001579,鄂尔多斯,内蒙古,,,鄂尔多斯婚庆文化园,,,
1001580,呼伦贝尔,内蒙古,,,熬鲁古雅,,,
1001581,呼伦贝尔,内蒙古,,,西朋斯格庙,,,
1001582,鹤岗,内蒙古,,,漠川海底龙宫,,,
1001583,呼和浩特,内蒙古,,,边宁古寺,,,
1001584,呼伦贝尔,内蒙古,,,月亮天池,,,
1001585,阿拉善,内蒙古,,,酒泉卫星发射中心,,,
1001586,呼伦贝尔,内蒙古,,,秀水风景区,,,
1001587,锡林郭勒,内蒙古,,,白垩纪恐龙地质公园,,,
1001588,呼和浩特,内蒙古,,,公主府公园,,,
1001589,兴安,内蒙古,,,漓源瀑布景区,,,
1001590,锡林郭勒,内蒙古,,,白音锡勒景区草原赛马场,,,
1001591,呼伦贝尔,内蒙古,,,黑山头古城遗址,,,
1001592,阿拉善,内蒙古,,,福因寺(北寺),,,
1001593,通辽,内蒙古,,,炮台山公园,,,
1001594,巴彦淖尔,内蒙古,,,芦苇荡,,,
1001595,通辽,内蒙古,,,湛露田园水上乐园,,,
1001597,包头,内蒙古,,,劳动公园,,,
1001598,锡林郭勒,内蒙古,,,双山水库,,,
1001599,呼伦贝尔,内蒙古,,,托扎敏乡,,,
1001600,呼和浩特,内蒙古,,,白塔,,,
1001602,兴安,内蒙古,,,内蒙古自治政府成立大会会址,,,
1001603,呼伦贝尔,内蒙古,,,双湖鱼跃,,,
1001604,乌海,内蒙古,,,欣泽水游乐园,,,
1001605,呼伦贝尔,内蒙古,,,宝格德乌拉山,,,
1001609,巴彦淖尔,内蒙古,,,乌梁素海景区,,,
1001610,赤峰,内蒙古,,,塞罕坝滑雪场,,,
1001611,呼伦贝尔,内蒙古,,,鹤翔园旅游度假村,,,
1001612,赤峰,内蒙古,,,翁牛特旗古代艺术博物馆,,,
1001613,兴安,内蒙古,,,神女峰,,,
1001614,巴彦淖尔,内蒙古,,,胡杨林,,,
1001615,呼和浩特,内蒙古,,,贺家大院,,,
1001616,阿拉善,内蒙古,,,内蒙古阿拉善沙漠世界地质公园,,,
1001617,桂林,内蒙古,,,超然派景区,,,
1001619,锡林郭勒,内蒙古,,,道图淖尔草原,,,
1001620,呼伦贝尔,内蒙古,,,巴林喇嘛山国家森林公园,,,
1001621,呼伦贝尔,内蒙古,,,半拉山,,,
1001622,乌海,内蒙古,,,草原明珠蒙古营,,,
1001623,巴彦淖尔,内蒙古,,,中国河套文化博物院,,,
1001624,兴安,内蒙古,,,察尔森湖度假区,,,
1001625,呼伦贝尔,内蒙古,,,乌兰诺尔湿地,,,
1001627,通辽,内蒙古,,,平顶山自然保护区,,,
1001628,乌兰察布,内蒙古,,,乌兰哈达火山地质公园-北炼丹炉,,,
1001629,呼伦贝尔,内蒙古,,,扎兰屯鄂伦春民俗博物馆,,,
1001630,乌兰察布,内蒙古,,,格根塔拉草原旅游中心,,,
1001631,锡林郭勒,内蒙古,,,柳兰沟,,,
1001632,赤峰,内蒙古,,,红山湖旅游区,,,
1001633,鹤岗,内蒙古,,,鲁家村,,,
1001634,呼伦贝尔,内蒙古,,,骆驼峰,,,
1001635,阿拉善,内蒙古,,,红城,,,
1001636,巴彦淖尔,内蒙古,,,甘其毛都口岸,,,
1001637,鄂尔多斯,内蒙古,,,神光响沙旅游区,,,
1001639,包头,内蒙古,,,梅力更召,,,
1001640,巴彦淖尔,内蒙古,,,人根峰,,,
1001641,乌兰察布,内蒙古,,,察尔湖生态旅游区,,,
1001642,通辽,内蒙古,,,哲里木盟科技馆,,,
1001643,呼伦贝尔,内蒙古,,,八大关牧场,,,
1001644,乌兰察布,内蒙古,,,黄羊滩,,,
1001647,呼和浩特,内蒙古,,,如意广场音乐喷泉,,,
1001648,锡林郭勒,内蒙古,,,太仆寺御马苑旅游区,,,
1001649,阿拉善,内蒙古,,,阿拉善左旗,,,
1001650,呼和浩特,内蒙古,,,内蒙古电影博物馆,,,
1001651,赤峰,内蒙古,,,美林谷,,,
1001652,呼和浩特,内蒙古,,,小井沟生态园,,,
1001653,锡林郭勒,内蒙古,,,浩其德王庙,,,
1001656,呼伦贝尔,内蒙古,,,呼伦贝尔副都统衙门,,,
1001657,锡林郭勒,内蒙古,,,男儿三艺博物馆,,,
1001658,通辽,内蒙古,,,金门山自然保护区,,,
1001659,西安,内蒙古,,,七星潭,,,
1001660,鄂尔多斯,内蒙古,,,夜鸣沙景区,,,
1001661,,内蒙古,,,莫力达瓦达斡尔族自治旗巴特罕公园,,,
1001662,呼伦贝尔,内蒙古,,,阿拉坦额莫勒镇,,,
1001663,锡林郭勒,内蒙古,,,额吉淖尔盐湖,,,
1001664,锡林郭勒,内蒙古,,,布日都庙,,,
1001666,赤峰,内蒙古,,,紫魃阶,,,
1001667,,内蒙古,,,尼尔基水库,,,
1001668,赤峰,内蒙古,,,经棚广场,,,
1001669,兴安,内蒙古,,,罕山公园,,,
1001670,鄂尔多斯,内蒙古,,,蒙古象棋广场,,,
1001671,阿拉善,内蒙古,,,曼德林乌拉山,,,
1001672,呼伦贝尔,内蒙古,,,奇乾乡,,,
1001673,赤峰,内蒙古,,,小河头,,,
1001675,呼伦贝尔,内蒙古,,,花水湾,,,
1001676,呼伦贝尔,内蒙古,,,鹰山大教堂,,,
1001677,巴彦淖尔,内蒙古,,,格尔敖包沟,,,
1001678,锡林郭勒,内蒙古,,,太仆寺旗贡宝拉格草原,,,
1001679,包头,内蒙古,,,八一公园,,,
1001680,通辽,内蒙古,,,孟家段水库,,,
1001682,呼和浩特,内蒙古,,,北极光滑雪场,,,
1001683,呼和浩特,内蒙古,,,七星柴鱼博物馆,,,
1001684,阿拉善,内蒙古,,,金沙堡地生态旅游区,,,
1001685,呼伦贝尔,内蒙古,,,药王洞,,,
1001687,赤峰,内蒙古,,,司名义大桥,,,
1001689,阿拉善,内蒙古,,,东风航天城,,,
1001690,呼伦贝尔,内蒙古,,,国际秘密交通线遗址,,,
1001692,呼伦贝尔,内蒙古,,,恩和北山,,,
1001695,锡林郭勒,内蒙古,,,乌拉盖水库,,,
1001697,包头,内蒙古,,,包头友谊广场,,,
1001698,呼伦贝尔,内蒙古,,,扎兰屯市博物馆,,,
1001699,巴彦淖尔,内蒙古,,,小佘太秦长城,,,
1001700,锡林郭勒,内蒙古,,,锡林郭勒草原自然保护区,,,
1001701,海南,内蒙古,,,文昌,,,
1001702,呼伦贝尔,内蒙古,,,敖鲁古雅鄂温克民族乡,,,
1001704,乌兰察布,内蒙古,,,永兴湖诸景,,,
1001705,赤峰,内蒙古,,,岗更诺尔湖,,,
1001707,兴安,内蒙古,,,科右前旗植物园,,,
1001708,呼伦贝尔,内蒙古,,,西山植物园,,,
1001709,阿拉善,内蒙古,,,大漠胡杨旅游区,,,
1001710,鄂尔多斯,内蒙古,,,鹰骏公园,,,
1001711,呼伦贝尔,内蒙古,,,草原之树“生死恋”,,,
1001712,呼和浩特,内蒙古,,,蒙牛酒业工业园,,,
1001713,鄂尔多斯,内蒙古,,,昭君坟浮桥,,,
1001714,包头,内蒙古,,,包头市科技馆,,,
1001717,呼伦贝尔,内蒙古,,,海拉尔河,,,
1001718,呼和浩特,内蒙古,,,青山公园,,,
1001719,呼伦贝尔,内蒙古,,,乌尔其汗大雁河生态园,,,
1001720,锡林郭勒,内蒙古,,,锡林水库,,,
1001721,通辽,内蒙古,,,可汗山,,,
1001722,阿拉善,内蒙古,,,额济纳旗绿城遗址,,,
1001723,呼和浩特,内蒙古,,,白石头沟生态旅游区,,,
1001724,锡林郭勒,内蒙古,,,锡林郭勒文化园,,,
1001725,呼和浩特,内蒙古,,,土默特博物馆,,,
1001727,赤峰,内蒙古,,,十二座连营风景区,,,
1001728,呼伦贝尔,内蒙古,,,情人岛,,,
1001729,兴安,内蒙古,,,健翔滑雪场,,,
1001730,锡林郭勒,内蒙古,,,成吉思汗文化广场,,,
1001732,呼伦贝尔,内蒙古,,,雁民广场,,,
1001733,赤峰,内蒙古,,,康宁寺,,,
1001734,阿拉善,内蒙古,,,诺尔图,,,
1001735,赤峰,内蒙古,,,赤峰植物园,,,
1001736,鄂尔多斯,内蒙古,,,东海国际温泉酒店温泉,,,
1001737,呼伦贝尔,内蒙古,,,满洲里婚礼宫,,,
1001741,巴彦淖尔,内蒙古,,,续灯禅寺,,,
1001743,兴安,内蒙古,,,鹿村,,,
1001744,包头,内蒙古,,,妙法禅寺,,,
1001745,通辽,内蒙古,,,孝庄故里,,,
1001747,呼伦贝尔,内蒙古,,,嘎骆驼渔村,,,
1001748,呼伦贝尔,内蒙古,,,伊克萨玛森林公园,,,
1001752,呼和浩特,内蒙古,,,新钢公园,,,
1001753,呼伦贝尔,内蒙古,,,喇嘛湖,,,
1001754,锡林郭勒,内蒙古,,,二连国门,,,
1001756,兴安,内蒙古,,,樟松林,,,
1001757,阿拉善,内蒙古,,,阿拉善王府,,,
1001759,呼和浩特,内蒙古,,,清真大寺(全胜路),,,
1001760,鄂尔多斯,内蒙古,,,碧海阳光国际温泉旅游度假区,,,
1001761,呼伦贝尔,内蒙古,,,黑山头中俄界河,,,
1001762,呼伦贝尔,内蒙古,,,山水岩壁画,,,
1001763,呼伦贝尔,内蒙古,,,合欢岩,,,
1001765,巴彦淖尔,内蒙古,,,乌拉特草原,,,
1001766,,内蒙古,,,腾克霍日里绰罗达斡尔部落,,,
1001767,鄂尔多斯,内蒙古,,,黄河大桥,,,
1001768,呼和浩特,内蒙古,,,庆缘寺,,,
1001769,乌海,内蒙古,,,人民公园,,,
1001771,兴安,内蒙古,,,兴安古镇,,,
1001773,巴彦淖尔,内蒙古,,,鸡鹿塞,,,
1001774,赤峰,内蒙古,,,克什克腾旗草原,,,
1001775,呼和浩特,内蒙古,,,苏雅拉公园,,,
1001776,呼和浩特,内蒙古,,,大召无量寺,,,
1001777,呼伦贝尔,内蒙古,,,大西山,,,
1001778,呼伦贝尔,内蒙古,,,满归镇,,,
1001779,包头,内蒙古,,,赛汗塔拉生态园,,,
1001780,呼伦贝尔,内蒙古,,,苏联红军烈士纪念塔,,,
1001781,呼伦贝尔,内蒙古,,,团结抗战胜利纪念碑,,,
1001782,呼伦贝尔,内蒙古,,,柴河月亮小镇,,,
1001784,呼伦贝尔,内蒙古,,,云龙山庄,,,
1001785,鄂尔多斯,内蒙古,,,伊和温泉度假村,,,
1001786,赤峰,内蒙古,,,国家地质公园,,,
1001788,乌兰察布,内蒙古,,,黄花沟,,,
1001790,包头,内蒙古,,,鄂尔多斯美岱召,,,
1001791,呼和浩特,内蒙古,,,呼和浩特市人民体育场,,,
1001792,赤峰,内蒙古,,,赤峰长青公园,,,
1001796,乌海,内蒙古,,,图海山旅游区,,,
1001797,巴彦淖尔,内蒙古,,,乌梁素海旅游区,,,
1001798,乌兰察布,内蒙古,,,集宁战役纪念馆,,,
1001799,锡林郭勒,内蒙古,,,乌兰布统敖包吐,,,
1001800,锡林郭勒,内蒙古,,,二连浩特国门景区,,,
1001801,通辽,内蒙古,,,公爷仓自然保护区,,,
1001802,锡林郭勒,内蒙古,,,蒙元文化苑（蒙元文化博物馆）,,,
1001803,通辽,内蒙古,,,炮台山自然保护区,,,
1001804,锡林郭勒,内蒙古,,,游牧部落,,,
1001805,,内蒙古,,,剑兰文体中心,,,
1001806,鄂尔多斯,内蒙古,,,上海庙马兰花大草原,,,
1001807,呼伦贝尔,内蒙古,,,贝尔湖(中国界),,,
1001809,呼伦贝尔,内蒙古,,,名人峰,,,
1001810,赤峰,内蒙古,,,松州公园,,,
1001811,锡林郭勒,内蒙古,,,灰腾锡勒天然植物园,,,
1001812,呼伦贝尔,内蒙古,,,冰湖,,,
1001813,呼和浩特,内蒙古,,,圆通寺,,,
1001814,锡林郭勒,内蒙古,,,太仆寺,,,
1001816,呼伦贝尔,内蒙古,,,红豆坡,,,
1001818,乌海,内蒙古,,,黄河滩岛景区,,,
1001819,阿拉善,内蒙古,,,吉兰泰盐湖,,,
1001820,兴安,内蒙古,,,内蒙古民族解放纪念馆,,,
1001821,锡林郭勒,内蒙古,,,玄石坡 立马峰,,,
1001822,呼伦贝尔,内蒙古,,,达赉湖自然保护区,,,
1001823,呼伦贝尔,内蒙古,,,下护林清真寺,,,
1001826,兴安,内蒙古,,,五角枫风景区,,,
1001827,锡林郭勒,内蒙古,,,满都胡宝拉格苏木,,,
1001828,通辽,内蒙古,,,双合尔山,,,
1001830,,内蒙古,,,西鄂尔多斯自然保护区,,,
1001831,锡林郭勒,内蒙古,,,额尔敦敖包,,,
1001832,包头,内蒙古,,,新世纪青年生态园,,,
1001833,呼和浩特,内蒙古,,,团结公园,,,
1001835,锡林郭勒,内蒙古,,,灰腾梁风场,,,
1001836,呼伦贝尔,内蒙古,,,拉布达林大桥,,,
1001838,呼伦贝尔,内蒙古,,,根河口,,,
1001839,包头,内蒙古,,,南海湿地景区,,,
1001840,鄂尔多斯,内蒙古,,,乌审召,,,
1001842,阿拉善,内蒙古,,,雅布赖镇,,,
1001843,呼伦贝尔,内蒙古,,,满洲里博物馆,,,
1001844,呼伦贝尔,内蒙古,,,侵华日军海拉尔要塞遗址,,,
1001845,呼伦贝尔,内蒙古,,,坤库力,,,
1001846,赤峰,内蒙古,,,经棚镇,,,
1001848,赤峰,内蒙古,,,张应瑞家族墓地,,,
1001849,巴彦淖尔,内蒙古,,,塞上奇石林,,,
1001850,呼伦贝尔,内蒙古,,,三河回族乡,,,
1001852,兴安,内蒙古,,,兴安盟图书馆,,,
1001853,锡林郭勒,内蒙古,,,巴彦河,,,
1001854,呼和浩特,内蒙古,,,敕勒川公园,,,
1001855,鄂尔多斯,内蒙古,,,亚洲雕塑艺术主题公园,,,
1001857,呼伦贝尔,内蒙古,,,达永山景区,,,
1001858,锡林郭勒,内蒙古,,,多伦湖,,,
1001860,呼和浩特,内蒙古,,,内蒙古农业大学,,,
1001862,呼伦贝尔,内蒙古,,,秀水山庄,,,
1001866,呼和浩特,内蒙古,,,三十二长城,,,
1001867,,内蒙古,,,鄂尔多斯动物园,,,
1001868,呼和浩特,内蒙古,,,赛罕区民族小学,,,
1001870,呼伦贝尔,内蒙古,,,绰源国家森林公园,,,
1001871,赤峰,内蒙古,,,南井,,,
1001872,阿拉善,内蒙古,,,巴丹吉林沙生植物公园,,,
1001873,锡林郭勒,内蒙古,,,希日塔拉草原度假村,,,
1001874,呼伦贝尔,内蒙古,,,南瓮河国家级自然保护区,,,
1001875,呼伦贝尔,内蒙古,,,瀑布岩,,,
1001876,赤峰,内蒙古,,,嘎拉德斯汰,,,
1001877,呼和浩特,内蒙古,,,蓝色故乡,,,
1001878,呼伦贝尔,内蒙古,,,五泉山旅游区,,,
1001880,乌兰察布,内蒙古,,,风力发电厂,,,
1001881,包头,内蒙古,,,乔家金街,,,
1001882,呼和浩特,内蒙古,,,乌素图森林旅游开发区,,,
1001883,呼和浩特,内蒙古,,,仕奇公园,,,
1001884,通辽,内蒙古,,,象教寺,,,
1001885,乌兰察布,内蒙古,,,辉腾希勒天然植物园,,,
1001886,呼和浩特,内蒙古,,,哈达门高原牧场,,,
1001888,赤峰,内蒙古,,,其甘沙漠旅游区,,,
1001889,赤峰,内蒙古,,,经乌线,,,
1001891,锡林郭勒,内蒙古,,,乌拉盖布林圣泉,,,
1001892,兴安,内蒙古,,,桂林荔浦丰鱼岩,,,
1001893,乌兰察布,内蒙古,,,二龙什台国家森林公园,,,
1001894,呼伦贝尔,内蒙古,,,月亮泡子,,,
1001895,锡林郭勒,内蒙古,,,杨都庙,,,
1001896,呼伦贝尔,内蒙古,,,凝翠山公园,,,
1001898,呼和浩特,内蒙古,,,南湖湿地公园,,,
1001899,锡林郭勒,内蒙古,,,灰腾锡勒植物园,,,
1001900,赤峰,内蒙古,,,蒸汽机车博物馆,,,
1001901,乌海,内蒙古,,,西鄂尔多斯国家级自然保护区,,,
1001902,锡林郭勒,内蒙古,,,太仆寺旗大草原,,,
1001903,兴安,内蒙古,,,松叶湖,,,
1001904,乌海,内蒙古,,,乌海市植物园,,,
1001905,呼伦贝尔,内蒙古,,,室韦口岸,,,
1001906,呼伦贝尔,内蒙古,,,灵龟岩,,,
1001907,呼伦贝尔,内蒙古,,,翠谷流云,,,
1001908,锡林郭勒,内蒙古,,,温都尔阿尔善温泉疗养中心,,,
1001910,呼伦贝尔,内蒙古,,,乌尔其汉森林公园,,,
1001911,呼伦贝尔,内蒙古,,,白沙滩,,,
1001912,桂林,内蒙古,,,红军长征突破湘江纪念园,,,
1001914,呼伦贝尔,内蒙古,,,偃松幽径,,,
1001915,乌海,内蒙古,,,满巴拉僧庙,,,
1001917,赤峰,内蒙古,,,中国克什克腾旗世界地质公园博物馆,,,
1001918,包头,内蒙古,,,包头清真大寺,,,
1001920,呼伦贝尔,内蒙古,,,东山植物园,,,
1001921,呼伦贝尔,内蒙古,,,莫尔道嘎镇,,,
1001922,呼伦贝尔,内蒙古,,,鸟语林,,,
1001923,通辽,内蒙古,,,龙尾巴沟,,,
1001924,赤峰,内蒙古,,,宁城热水温泉,,,
1001926,赤峰,内蒙古,,,透风沟,,,
1001927,呼伦贝尔,内蒙古,,,布苏里北疆军事文化旅游区,,,
1001929,呼伦贝尔,内蒙古,,,醒狮岩,,,
1001930,呼伦贝尔,内蒙古,,,太平川民俗村,,,
1001933,赤峰,内蒙古,,,元应昌路遗址,,,
1001934,赤峰,内蒙古,,,月牙山溶洞,,,
1001935,包头,内蒙古,,,百灵那达慕会场,,,
1001936,赤峰,内蒙古,,,天山公园,,,
1001937,锡林郭勒,内蒙古,,,巴拉嘎尔高勒嘎查,,,
1001939,阿拉善,内蒙古,,,红城子遗址,,,
1001940,乌海,内蒙古,,,黄河湿地景观区,,,
1001941,乌海,内蒙古,,,人民广场,,,
1001942,阿拉善,内蒙古,,,阿拉善博物馆,,,
1001943,呼和浩特,内蒙古,,,大窑文化遗址博物馆,,,
1001945,赤峰,内蒙古,,,红山国家森林公园,,,
1001946,呼和浩特,内蒙古,,,锡林公园,,,
1001947,鄂尔多斯,内蒙古,,,恩格贝生态示范区沙漠科学馆,,,
1001948,包头,内蒙古,,,怀朔古城遗址,,,
1001950,鄂尔多斯,内蒙古,,,黑赖沟,,,
1001951,巴彦淖尔,内蒙古,,,蒲草,,,
1001952,阿拉善,内蒙古,,,二道桥,,,
1001955,呼伦贝尔,内蒙古,,,太平川,,,
1001956,呼和浩特,内蒙古,,,新华公园,,,
1001957,呼和浩特,内蒙古,,,绥远城墙将军衙署,,,
1001958,呼伦贝尔,内蒙古,,,辉河国家级自然保护区,,,
1001960,赤峰,内蒙古,,,夹皮沟风景区,,,
1001962,兴安,内蒙古,,,龟背岩,,,
1001963,锡林郭勒,内蒙古,,,敖包希热公园,,,
1001964,赤峰,内蒙古,,,沙地云杉景区,,,
1001965,呼伦贝尔,内蒙古,,,多蓝广场,,,
1001966,锡林郭勒,内蒙古,,,浑善达克大沙漠,,,
1001967,巴彦淖尔,内蒙古,,,乌拉山国家森林公园,,,
1001968,呼伦贝尔,内蒙古,,,偃松林,,,
1001969,通辽,内蒙古,,,辉特扎哈诺尔草原旅游区,,,
1001970,兴安,内蒙古,,,猫儿山国家级自然保护区,,,
1001971,兴安,内蒙古,,,代钦塔拉,,,
1001972,包头,内蒙古,,,包百3D画展,,,
1001973,锡林郭勒,内蒙古,,,响泉,,,
1001974,赤峰,内蒙古,,,放羊滩,,,
1001976,鄂尔多斯,内蒙古,,,油松王旅游区,,,
1001978,呼伦贝尔,内蒙古,,,一代天骄蒙古部落,,,
1001980,呼伦贝尔,内蒙古,,,太平屯,,,
1001983,锡林郭勒,内蒙古,,,御马苑马文化博物馆,,,
1001984,兴安,内蒙古,,,乌兰牧骑宫,,,
1001985,乌海,内蒙古,,,乌海市青少年科学技术馆,,,
1001986,,内蒙古,,,迎宾广场,,,
1001987,赤峰,内蒙古,,,迪彦林场,,,
1001988,锡林郭勒,内蒙古,,,观音洞,,,
1001989,呼伦贝尔,内蒙古,,,海拉尔自然博物馆,,,
1001990,乌兰察布,内蒙古,,,四子王旗王爷府,,,
1001991,兴安,内蒙古,,,洮儿河国家湿地公园,,,
1001995,锡林郭勒,内蒙古,,,宝昌镇,,,
1001997,赤峰,内蒙古,,,倒须沟,,,
1001998,兴安,内蒙古,,,代钦塔拉五角枫旅游景区,,,
1001999,乌兰察布,内蒙古,,,集宁国际皮革城,,,
1002000,呼伦贝尔,内蒙古,,,石雨谷,,,
1002001,呼伦贝尔,内蒙古,,,0号界碑,,,
1002002,呼伦贝尔,内蒙古,,,柴河森林公园,,,
1002003,包头,内蒙古,,,包头召,,,
1002004,呼伦贝尔,内蒙古,,,龙岩揽胜,,,
1002005,呼伦贝尔,内蒙古,,,卡鲁奔湿地公园,,,
1002006,包头,内蒙古,,,白云鄂博矿山,,,
1002007,呼伦贝尔,内蒙古,,,柴河,,,
1002009,呼伦贝尔,内蒙古,,,窟窿山风景区,,,
1002012,乌兰察布,内蒙古,,,乌兰哈达火山地质公园,,,
1002013,兴安,内蒙古,,,仙鹤湖,,,
1002014,呼和浩特,内蒙古,,,满都海公园,,,
1002015,呼伦贝尔,内蒙古,,,额尔古纳恩和俄罗斯民族乡小学,,,
1002016,乌兰察布,内蒙古,,,乌兰察布市阿贵庙旅游点,,,
1002018,呼和浩特,内蒙古,,,关帝寺,,,
1002021,锡林郭勒,内蒙古,,,乌拉盖草原,,,
1002026,阿拉善,内蒙古,,,九棵树旅游区,,,
1002027,呼和浩特,内蒙古,,,呼和浩特敖包山,,,
1002028,锡林郭勒,内蒙古,,,布林圣泉,,,
1002029,阿拉善,内蒙古,,,戈壁蜃楼,,,
1002030,呼伦贝尔,内蒙古,,,小扬气镇,,,
1002031,包头,内蒙古,,,小白河湿地公园,,,
1002032,锡林郭勒,内蒙古,,,天鹅湖,,,
1002033,呼伦贝尔,内蒙古,,,木屋度假村,,,
1002034,乌海,内蒙古,,,乌海博物馆,,,
1002035,呼伦贝尔,内蒙古,,,卧牛泡子,,,
1002037,阿拉善,内蒙古,,,腾格里沙漠营地,,,
1002038,赤峰,内蒙古,,,翁牛特旗红山湖,,,
1002039,乌海,内蒙古,,,乌珠慕公园,,,
1002041,乌海,内蒙古,,,召烧沟岩画博物馆,,,
1002042,呼伦贝尔,内蒙古,,,仙子湖风景区,,,
1002043,乌海,内蒙古,,,一棵树生态旅游区,,,
1002044,包头,内蒙古,,,莲花山景区,,,
1002045,阿拉善,内蒙古,,,额济纳博物馆,,,
1002049,呼伦贝尔,内蒙古,,,剑龙岩,,,
1002050,包头,内蒙古,,,赵长城遗址,,,
1002052,乌海,内蒙古,,,五四公园,,,
1002055,兴安,内蒙古,,,阿尔山口岸,,,
1002056,阿拉善,内蒙古,,,中卫水稍子度假区,,,
1002059,呼伦贝尔,内蒙古,,,布苏里山庄,,,
1002060,呼伦贝尔,内蒙古,,,凤冠高级滑雪场,,,
1002061,阿拉善,内蒙古,,,西部梦幻峡谷,,,
1002062,兴安,内蒙古,,,翰嘎利湖度假区,,,
1002063,呼伦贝尔,内蒙古,,,乌尔其汗镇,,,
1002064,呼和浩特,内蒙古,,,万部华严经塔（白塔）,,,
1002065,兴安,内蒙古,,,乌兰夫办公旧址,,,
1002066,呼伦贝尔,内蒙古,,,多布库尔民俗村,,,
1002068,乌兰察布,内蒙古,,,明徐氏楼,,,
1002069,呼伦贝尔,内蒙古,,,阔亦田战场遗址,,,
1002070,锡林郭勒,内蒙古,,,乌拉盖河,,,
1002071,呼伦贝尔,内蒙古,,,得耳布尔,,,
1002072,呼和浩特,内蒙古,,,五一水库,,,
1002075,锡林郭勒,内蒙古,,,元上都遗址博物馆,,,
1002077,呼伦贝尔,内蒙古,,,阿拉坦都热马场,,,
1002078,锡林郭勒,内蒙古,,,锡林郭勒草原游牧风情园,,,
1002079,呼和浩特,内蒙古,,,内蒙古元代瓷器博物馆,,,
1002083,锡林郭勒,内蒙古,,,上都湖,,,
1002084,赤峰,内蒙古,,,达里诺尔湖博物馆,,,
1002085,包头,内蒙古,,,阿尔丁广场,,,
1002086,呼伦贝尔,内蒙古,,,札木合称汗地,,,
1002088,呼伦贝尔,内蒙古,,,吊桥公园,,,
1002090,锡林郭勒,内蒙古,,,哈布其盖旅游景区,,,
1002091,呼伦贝尔,内蒙古,,,喇嘛山生态园,,,
1002092,阿拉善,内蒙古,,,若水金沙湾,,,
1002093,呼和浩特,内蒙古,,,呼和浩特市规划展览馆,,,
1002094,,内蒙古,,,四方山生态园,,,
1002095,,内蒙古,,,博荣山植物园,,,
1002096,乌海,内蒙古,,,乌海清真寺,,,
1002097,呼和浩特,内蒙古,,,天主教堂(呼和浩特),,,
1002099,通辽,内蒙古,,,库伦沙漠,,,
1002100,呼伦贝尔,内蒙古,,,伪兴安东省历史陈列室,,,
1002101,包头,内蒙古,,,敕勒川博物馆,,,
1002103,巴彦淖尔,内蒙古,,,傣族村寨,,,
1002104,鄂尔多斯,内蒙古,,,龙头拐,,,
1002106,呼伦贝尔,内蒙古,,,五道街人民广场,,,
1002107,兴安,内蒙古,,,新佳木苏木,,,
1002110,乌兰察布,内蒙古,,,乌兰察布博物馆,,,
1002111,呼伦贝尔,内蒙古,,,相思谷原始林风景区,,,
1002113,呼伦贝尔,内蒙古,,,布冬霞部落猎民点,,,
1002114,呼伦贝尔,内蒙古,,,龙山公园,,,
1002117,赤峰,内蒙古,,,美林谷风景区,,,
1002118,乌兰察布,内蒙古,,,西山生态公园,,,
1002119,呼伦贝尔,内蒙古,,,慈积金刚塔,,,
1002120,包头,内蒙古,,,梅令花海,,,
1002122,呼伦贝尔,内蒙古,,,下护林,,,
1002125,赤峰,内蒙古,,,辽庆州白塔,,,
1002126,呼伦贝尔,内蒙古,,,巴彦呼硕(白音呼硕)草原旅游区,,,
1002127,阿拉善,内蒙古,,,庙海子（苏敏吉林）,,,
1002128,锡林郭勒,内蒙古,,,砧子山,,,
1002129,赤峰,内蒙古,,,曼陀山,,,
1002131,呼伦贝尔,内蒙古,,,套娃俄蒙演绎大厅,,,
1002133,锡林郭勒,内蒙古,,,库伦庙,,,
1002134,呼伦贝尔,内蒙古,,,沙俄监狱陈列馆,,,
1002135,呼伦贝尔,内蒙古,,,天骄公园,,,
1002136,鄂尔多斯,内蒙古,,,水镜湖休闲度假旅游区,,,
1002137,阿拉善,内蒙古,,,延福寺,,,
1002138,呼伦贝尔,内蒙古,,,满洲里扎赉诺尔猛犸公园,,,
1002139,呼和浩特,内蒙古,,,内蒙古师范大学,,,
1002140,锡林郭勒,内蒙古,,,古若斯台国家级保护区半拉山景区,,,
1002141,呼伦贝尔,内蒙古,,,甘河,,,
1002142,呼伦贝尔,内蒙古,,,地池,,,
1002143,乌兰察布,内蒙古,,,玫瑰营镇天主教堂,,,
1002144,锡林郭勒,内蒙古,,,九曲度假村,,,
1002146,赤峰,内蒙古,,,鲁王城,,,
1002147,鄂尔多斯,内蒙古,,,康巴什喷泉广场,,,
1002148,乌海,内蒙古,,,胡杨岛旅游景区,,,
1002149,阿拉善,内蒙古,,,内蒙古贺兰山国家级自然保护区,,,
1002152,赤峰,内蒙古,,,克什克腾世界地质公园青山园区,,,
1002153,兴安,内蒙古,,,白狼峰景区,,,
1002154,呼和浩特,内蒙古,,,呼和浩特市科技馆,,,
1002155,包头,内蒙古,,,查干淖尔苏木,,,
1002156,呼伦贝尔,内蒙古,,,界河山庄,,,
1002158,鄂尔多斯,内蒙古,,,七星湖沙漠博物馆,,,
1002163,阿拉善,内蒙古,,,三关口明长城,,,
1002164,锡林郭勒,内蒙古,,,布林庙,,,
1002165,锡林郭勒,内蒙古,,,蔡木山,,,
